[
  {
    "id": "633965d52f36d45f3f36ec6a",
    "city": "Camas",
    "state": "South Carolina",
    "bedrooms": 3,
    "country": "Tunisia",
    "squareFootage": 2173,
    "picture": "http://placehold.it/32x32",
    "yearBuilt": 1968,
    "bathrooms": 5,
    "propertyType": "Condominium",
    "address": "873 Gunther Place, Cobbtown, California, 1594",
    "lastSaleDate": "2024-12-26",
    "latitude": 75.053019,
    "longitude": 69.175185,
    "rent": 46,
    "name": "Buckley"
  },
  {
    "id": "633965d5905dd466ec6aaef9",
    "city": "Fowlerville",
    "state": "Colorado",
    "bedrooms": 5,
    "country": "Switzerland",
    "squareFootage": 3775,
    "picture": "http://placehold.it/32x32",
    "yearBuilt": 2000,
    "bathrooms": 6,
    "propertyType": "Condominium",
    "address": "370 Raleigh Place, Wollochet, Connecticut, 4529",
    "lastSaleDate": "2024-12-12",
    "latitude": 19.941518,
    "longitude": 170.091088,
    "rent": 1107,
    "name": "Robbie"
  },
  {
    "id": "633965d5fe33fa44e502040b",
    "city": "Hoagland",
    "state": "Montana",
    "bedrooms": 2,
    "country": "Chad",
    "squareFootage": 1774,
    "picture": "http://placehold.it/32x32",
    "yearBuilt": 1977,
    "bathrooms": 4,
    "propertyType": "Residential Area",
    "address": "409 Roosevelt Place, Yettem, Maine, 4452",
    "lastSaleDate": "2023-08-22",
    "latitude": 85.453612,
    "longitude": -79.143049,
    "rent": 660,
    "name": "Harding"
  },
  {
    "id": "633965d59476f5f54a6429f3",
    "city": "Bluffview",
    "state": "Kansas",
    "bedrooms": 6,
    "country": "Cuba",
    "squareFootage": 1655,
    "picture": "http://placehold.it/32x32",
    "yearBuilt": 1919,
    "bathrooms": 4,
    "propertyType": "Single Family Home",
    "address": "469 Jamison Lane, Chaparrito, Michigan, 9129",
    "lastSaleDate": "2024-05-10",
    "latitude": 81.411496,
    "longitude": -56.158071,
    "rent": 1389,
    "name": "Jaclyn"
  },
  {
    "id": "633965d51681b3cd9f8ae5b9",
    "city": "Winchester",
    "state": "North Dakota",
    "bedrooms": 9,
    "country": "Mayotte",
    "squareFootage": 3034,
    "picture": "http://placehold.it/32x32",
    "yearBuilt": 1929,
    "bathrooms": 4,
    "propertyType": "Residential Area",
    "address": "964 Union Street, Saddlebrooke, Missouri, 7172",
    "lastSaleDate": "2023-09-11",
    "latitude": -87.661504,
    "longitude": -92.736698,
    "rent": 1131,
    "name": "Maxine"
  },
  {
    "id": "633965d53997ae7a87072192",
    "city": "Ferney",
    "state": "Maryland",
    "bedrooms": 2,
    "country": "Nepal",
    "squareFootage": 1157,
    "picture": "http://placehold.it/32x32",
    "yearBuilt": 1929,
    "bathrooms": 4,
    "propertyType": "Apartment",
    "address": "406 Harway Avenue, Hatteras, North Carolina, 4380",
    "lastSaleDate": "2024-02-07",
    "latitude": 28.25326,
    "longitude": -63.609966,
    "rent": 169,
    "name": "Crosby"
  },
  {
    "id": "633965d52a184b0ba46749cc",
    "city": "Idledale",
    "state": "Arkansas",
    "bedrooms": 3,
    "country": "Western Sahara",
    "squareFootage": 2495,
    "picture": "http://placehold.it/32x32",
    "yearBuilt": 1964,
    "bathrooms": 2,
    "propertyType": "Single Family Home",
    "address": "814 Rapelye Street, Sunwest, Marshall Islands, 795",
    "lastSaleDate": "2023-09-05",
    "latitude": -88.666612,
    "longitude": -53.099491,
    "rent": 1293,
    "name": "Brandi"
  },
  {
    "id": "633965d5c2e8bb12b66ee65c",
    "city": "Savannah",
    "state": "Massachusetts",
    "bedrooms": 5,
    "country": "Azerbaijan",
    "squareFootage": 2935,
    "picture": "http://placehold.it/32x32",
    "yearBuilt": 1943,
    "bathrooms": 3,
    "propertyType": "Apartment",
    "address": "572 Dennett Place, Mappsville, West Virginia, 5783",
    "lastSaleDate": "2024-08-23",
    "latitude": 20.318803,
    "longitude": 3.43545,
    "rent": 1144,
    "name": "Munoz"
  },
  {
    "id": "633965d51265e7ec760da329",
    "city": "Trinway",
    "state": "Nebraska",
    "bedrooms": 3,
    "country": "Suriname",
    "squareFootage": 1459,
    "picture": "http://placehold.it/32x32",
    "yearBuilt": 1998,
    "bathrooms": 2,
    "propertyType": "Condominium",
    "address": "170 Newel Street, Frystown, New Mexico, 8733",
    "lastSaleDate": "2023-02-02",
    "latitude": -84.016381,
    "longitude": -157.73161,
    "rent": 1239,
    "name": "Hawkins"
  },
  {
    "id": "633965d54888ff9cd1950828",
    "city": "Chumuckla",
    "state": "New Jersey",
    "bedrooms": 7,
    "country": "Antigua and Barbuda",
    "squareFootage": 2952,
    "picture": "http://placehold.it/32x32",
    "yearBuilt": 2013,
    "bathrooms": 4,
    "propertyType": "Apartment",
    "address": "412 Cropsey Avenue, Deercroft, Idaho, 7846",
    "lastSaleDate": "2024-09-06",
    "latitude": 39.89208,
    "longitude": -68.720506,
    "rent": 22,
    "name": "Nelda"
  },
  {
    "id": "633965d590c9be158a8c1ba2",
    "city": "Layhill",
    "state": "Louisiana",
    "bedrooms": 3,
    "country": "Djibouti",
    "squareFootage": 1643,
    "picture": "http://placehold.it/32x32",
    "yearBuilt": 2004,
    "bathrooms": 5,
    "propertyType": "Commercial Real Estate",
    "address": "641 Chestnut Street, Aguila, Rhode Island, 490",
    "lastSaleDate": "2023-07-05",
    "latitude": 5.765436,
    "longitude": -83.956808,
    "rent": 492,
    "name": "Liz"
  },
  {
    "id": "633965d585eef39762843955",
    "city": "Martinez",
    "state": "Texas",
    "bedrooms": 7,
    "country": "Grenada",
    "squareFootage": 1983,
    "picture": "http://placehold.it/32x32",
    "yearBuilt": 1993,
    "bathrooms": 6,
    "propertyType": "Commercial Real Estate",
    "address": "249 Bushwick Place, Stagecoach, Alabama, 6715",
    "lastSaleDate": "2023-04-01",
    "latitude": -27.224384,
    "longitude": -12.884084,
    "rent": 1043,
    "name": "Ashley"
  },
  {
    "id": "633965d541f03570d58742f6",
    "city": "Forestburg",
    "state": "Federated States Of Micronesia",
    "bedrooms": 5,
    "country": "Gibraltar",
    "squareFootage": 1106,
    "picture": "http://placehold.it/32x32",
    "yearBuilt": 2003,
    "bathrooms": 3,
    "propertyType": "Multifamily Residential",
    "address": "719 Mayfair Drive, Zarephath, Oklahoma, 512",
    "lastSaleDate": "2023-10-20",
    "latitude": -6.815493,
    "longitude": 138.303318,
    "rent": 882,
    "name": "Douglas"
  },
  {
    "id": "633965d551ebc7de4929faa6",
    "city": "Strykersville",
    "state": "Northern Mariana Islands",
    "bedrooms": 3,
    "country": "Marshall Islands",
    "squareFootage": 3491,
    "picture": "http://placehold.it/32x32",
    "yearBuilt": 1986,
    "bathrooms": 3,
    "propertyType": "Single Family Home",
    "address": "622 Eckford Street, Hampstead, Washington, 8068",
    "lastSaleDate": "2024-07-22",
    "latitude": 88.144899,
    "longitude": 141.420901,
    "rent": 944,
    "name": "Eliza"
  },
  {
    "id": "633965d5483796ab602f133a",
    "city": "Brookfield",
    "state": "Delaware",
    "bedrooms": 3,
    "country": "St. Pierre and Miquelon",
    "squareFootage": 2084,
    "picture": "http://placehold.it/32x32",
    "yearBuilt": 1976,
    "bathrooms": 6,
    "propertyType": "Apartment",
    "address": "967 Rewe Street, Santel, Pennsylvania, 8299",
    "lastSaleDate": "2023-12-24",
    "latitude": 48.506304,
    "longitude": -57.243058,
    "rent": 547,
    "name": "Whitney"
  },
  {
    "id": "633965d5d3adf1df95ec6f52",
    "city": "Hobucken",
    "state": "Kentucky",
    "bedrooms": 2,
    "country": "Barbados",
    "squareFootage": 1827,
    "picture": "http://placehold.it/32x32",
    "yearBuilt": 1920,
    "bathrooms": 5,
    "propertyType": "Personal Property",
    "address": "404 Sutton Street, Ruckersville, District Of Columbia, 2086",
    "lastSaleDate": "2023-12-22",
    "latitude": -46.445443,
    "longitude": -41.201743,
    "rent": 297,
    "name": "Talley"
  },
  {
    "id": "633965d55cbdb521ec811e98",
    "city": "Worcester",
    "state": "Mississippi",
    "bedrooms": 6,
    "country": "Guatemala",
    "squareFootage": 1680,
    "picture": "http://placehold.it/32x32",
    "yearBuilt": 1979,
    "bathrooms": 2,
    "propertyType": "Condominium",
    "address": "563 Furman Street, Nash, Guam, 1531",
    "lastSaleDate": "2024-07-03",
    "latitude": -77.296675,
    "longitude": 119.429198,
    "rent": 444,
    "name": "Antonia"
  },
  {
    "id": "633965d59f22cbd417decec9",
    "city": "Omar",
    "state": "Palau",
    "bedrooms": 10,
    "country": "United Kingdom",
    "squareFootage": 3488,
    "picture": "http://placehold.it/32x32",
    "yearBuilt": 1959,
    "bathrooms": 4,
    "propertyType": "Commercial Real Estate",
    "address": "210 Newkirk Avenue, Riegelwood, Oregon, 9951",
    "lastSaleDate": "2024-07-28",
    "latitude": -50.564296,
    "longitude": -0.500885,
    "rent": 551,
    "name": "Angelia"
  },
  {
    "id": "633965d57450d28ae32e505a",
    "city": "Interlochen",
    "state": "Iowa",
    "bedrooms": 8,
    "country": "Guadeloupe",
    "squareFootage": 1288,
    "picture": "http://placehold.it/32x32",
    "yearBuilt": 1922,
    "bathrooms": 5,
    "propertyType": "Single Family Home",
    "address": "729 Everit Street, Franklin, Hawaii, 6233",
    "lastSaleDate": "2022-10-04",
    "latitude": -33.1564,
    "longitude": 32.931139,
    "rent": 58,
    "name": "Guy"
  },
  {
    "id": "633965d5752b124089404c2c",
    "city": "Tecolotito",
    "state": "Florida",
    "bedrooms": 4,
    "country": "Romania",
    "squareFootage": 1690,
    "picture": "http://placehold.it/32x32",
    "yearBuilt": 1917,
    "bathrooms": 3,
    "propertyType": "Single Family Home",
    "address": "180 Ridgewood Place, Mathews, American Samoa, 1798",
    "lastSaleDate": "2024-03-17",
    "latitude": 2.788575,
    "longitude": -142.022272,
    "rent": 1138,
    "name": "Levy"
  },
  {
    "id": "633965d558170b2809cef1a9",
    "city": "Brethren",
    "state": "Nevada",
    "bedrooms": 2,
    "country": "Italy",
    "squareFootage": 2242,
    "picture": "http://placehold.it/32x32",
    "yearBuilt": 1976,
    "bathrooms": 2,
    "propertyType": "Single Family Home",
    "address": "242 Dobbin Street, Beaulieu, Tennessee, 9737",
    "lastSaleDate": "2023-02-14",
    "latitude": -87.736864,
    "longitude": -12.148246,
    "rent": 60,
    "name": "Guerrero"
  },
  {
    "id": "633965d5b7fccbc51e245e8d",
    "city": "Levant",
    "state": "Indiana",
    "bedrooms": 8,
    "country": "Taiwan",
    "squareFootage": 3379,
    "picture": "http://placehold.it/32x32",
    "yearBuilt": 2014,
    "bathrooms": 3,
    "propertyType": "Condominium",
    "address": "856 Colin Place, Dixonville, Illinois, 9310",
    "lastSaleDate": "2023-11-05",
    "latitude": -38.451981,
    "longitude": -165.134073,
    "rent": 808,
    "name": "Rosie"
  },
  {
    "id": "633965d568af68aa01b5ef3c",
    "city": "Stockdale",
    "state": "Arizona",
    "bedrooms": 3,
    "country": "Guinea-Bissau",
    "squareFootage": 1390,
    "picture": "http://placehold.it/32x32",
    "yearBuilt": 2007,
    "bathrooms": 5,
    "propertyType": "Single Family Home",
    "address": "959 Kenmore Court, Kidder, Puerto Rico, 4718",
    "lastSaleDate": "2024-04-03",
    "latitude": 37.036015,
    "longitude": 144.323958,
    "rent": 453,
    "name": "Nina"
  },
  {
    "id": "633965d5c95cb778d3629002",
    "city": "Ticonderoga",
    "state": "Georgia",
    "bedrooms": 3,
    "country": "Ghana",
    "squareFootage": 3600,
    "picture": "http://placehold.it/32x32",
    "yearBuilt": 1914,
    "bathrooms": 6,
    "propertyType": "Residential Area",
    "address": "637 Eldert Street, Sidman, New Hampshire, 4398",
    "lastSaleDate": "2024-08-28",
    "latitude": 12.569414,
    "longitude": -157.506255,
    "rent": 970,
    "name": "Cynthia"
  },
  {
    "id": "633965d52ecd2db80bc4812e",
    "city": "Gulf",
    "state": "Utah",
    "bedrooms": 7,
    "country": "India",
    "squareFootage": 3569,
    "picture": "http://placehold.it/32x32",
    "yearBuilt": 1963,
    "bathrooms": 3,
    "propertyType": "Commercial Real Estate",
    "address": "738 Crooke Avenue, Wescosville, Wyoming, 5699",
    "lastSaleDate": "2024-01-30",
    "latitude": -46.602412,
    "longitude": 148.975007,
    "rent": 202,
    "name": "Middleton"
  },
  {
    "id": "633965d5f104fd7dc562b711",
    "city": "Tedrow",
    "state": "Virginia",
    "bedrooms": 2,
    "country": "Togo",
    "squareFootage": 3620,
    "picture": "http://placehold.it/32x32",
    "yearBuilt": 1901,
    "bathrooms": 3,
    "propertyType": "Personal Property",
    "address": "967 Macdougal Street, Elizaville, Minnesota, 4750",
    "lastSaleDate": "2022-10-14",
    "latitude": -71.582229,
    "longitude": 80.718897,
    "rent": 1107,
    "name": "Haney"
  },
  {
    "id": "633965d55966dd76a8fe28ce",
    "city": "Croom",
    "state": "Vermont",
    "bedrooms": 5,
    "country": "Andorra",
    "squareFootage": 2294,
    "picture": "http://placehold.it/32x32",
    "yearBuilt": 1971,
    "bathrooms": 5,
    "propertyType": "Personal Property",
    "address": "783 Winthrop Street, Farmington, Ohio, 7553",
    "lastSaleDate": "2024-01-02",
    "latitude": 34.973152,
    "longitude": 5.483453,
    "rent": 547,
    "name": "Gilmore"
  },
  {
    "id": "633965d57b975cbd43d8e1c2",
    "city": "Coventry",
    "state": "Wisconsin",
    "bedrooms": 7,
    "country": "Australia",
    "squareFootage": 3571,
    "picture": "http://placehold.it/32x32",
    "yearBuilt": 1969,
    "bathrooms": 2,
    "propertyType": "Condominium",
    "address": "186 Putnam Avenue, Vivian, South Dakota, 5601",
    "lastSaleDate": "2023-12-21",
    "latitude": -71.860005,
    "longitude": 67.706343,
    "rent": 973,
    "name": "Lelia"
  },
  {
    "id": "633965d5d489c34df57ae9f0",
    "city": "Belfair",
    "state": "Alaska",
    "bedrooms": 10,
    "country": "Senegal",
    "squareFootage": 1372,
    "picture": "http://placehold.it/32x32",
    "yearBuilt": 2010,
    "bathrooms": 5,
    "propertyType": "Multifamily Residential",
    "address": "725 Arion Place, Nelson, Virgin Islands, 1917",
    "lastSaleDate": "2024-10-13",
    "latitude": -73.320076,
    "longitude": 80.796602,
    "rent": 804,
    "name": "Pansy"
  },
  {
    "id": "633965d5037e51ae550c22f6",
    "city": "Rowe",
    "state": "South Carolina",
    "bedrooms": 8,
    "country": "Bangladesh",
    "squareFootage": 1512,
    "picture": "http://placehold.it/32x32",
    "yearBuilt": 1986,
    "bathrooms": 5,
    "propertyType": "Single Family Home",
    "address": "702 Canarsie Road, Lloyd, California, 5217",
    "lastSaleDate": "2024-01-16",
    "latitude": 5.421872,
    "longitude": -139.192829,
    "rent": 924,
    "name": "Kasey"
  },
  {
    "id": "633965d593b8d8d1819d9a3a",
    "city": "Fivepointville",
    "state": "Colorado",
    "bedrooms": 6,
    "country": "Ireland",
    "squareFootage": 2534,
    "picture": "http://placehold.it/32x32",
    "yearBuilt": 1922,
    "bathrooms": 4,
    "propertyType": "Single Family Home",
    "address": "141 Chester Court, Tooleville, Connecticut, 6207",
    "lastSaleDate": "2024-01-22",
    "latitude": -46.788837,
    "longitude": -154.813642,
    "rent": 1106,
    "name": "Walker"
  },
  {
    "id": "633965d5a030656bae7853a0",
    "city": "Ribera",
    "state": "Montana",
    "bedrooms": 4,
    "country": "Monaco",
    "squareFootage": 1547,
    "picture": "http://placehold.it/32x32",
    "yearBuilt": 1910,
    "bathrooms": 3,
    "propertyType": "Condominium",
    "address": "541 Furman Avenue, Joppa, Maine, 5027",
    "lastSaleDate": "2024-01-09",
    "latitude": -82.939829,
    "longitude": 120.71165,
    "rent": 66,
    "name": "Muriel"
  },
  {
    "id": "633965d5ac85728a8c1de221",
    "city": "Gadsden",
    "state": "Kansas",
    "bedrooms": 8,
    "country": "Niue",
    "squareFootage": 3728,
    "picture": "http://placehold.it/32x32",
    "yearBuilt": 1933,
    "bathrooms": 4,
    "propertyType": "Apartment",
    "address": "596 Ross Street, Kempton, Michigan, 1260",
    "lastSaleDate": "2023-06-02",
    "latitude": -11.200838,
    "longitude": -95.809065,
    "rent": 111,
    "name": "Bright"
  },
  {
    "id": "633965d598fa3ef9b543d958",
    "city": "Orin",
    "state": "North Dakota",
    "bedrooms": 9,
    "country": "Cocos (Keeling Islands)",
    "squareFootage": 3998,
    "picture": "http://placehold.it/32x32",
    "yearBuilt": 2005,
    "bathrooms": 4,
    "propertyType": "Condominium",
    "address": "548 Ashford Street, Cumberland, Missouri, 6724",
    "lastSaleDate": "2023-11-21",
    "latitude": -12.935001,
    "longitude": 20.841038,
    "rent": 231,
    "name": "Reynolds"
  },
  {
    "id": "633965d5eea7128f8298b3d8",
    "city": "Troy",
    "state": "Maryland",
    "bedrooms": 4,
    "country": "El Salvador",
    "squareFootage": 1844,
    "picture": "http://placehold.it/32x32",
    "yearBuilt": 1910,
    "bathrooms": 5,
    "propertyType": "Condominium",
    "address": "766 Opal Court, Helen, North Carolina, 6012",
    "lastSaleDate": "2022-12-25",
    "latitude": 2.41888,
    "longitude": 175.726319,
    "rent": 1392,
    "name": "Fisher"
  },
  {
    "id": "633965d5627258cf0cfd18be",
    "city": "Fairview",
    "state": "Arkansas",
    "bedrooms": 5,
    "country": "Turkey",
    "squareFootage": 2281,
    "picture": "http://placehold.it/32x32",
    "yearBuilt": 1936,
    "bathrooms": 3,
    "propertyType": "Condominium",
    "address": "865 Conway Street, Finderne, Marshall Islands, 3761",
    "lastSaleDate": "2023-05-25",
    "latitude": -78.769011,
    "longitude": 143.790206,
    "rent": 184,
    "name": "Franklin"
  },
  {
    "id": "633965d538afa17e7b350f16",
    "city": "Inkerman",
    "state": "Massachusetts",
    "bedrooms": 9,
    "country": "Kuwait",
    "squareFootage": 1857,
    "picture": "http://placehold.it/32x32",
    "yearBuilt": 1970,
    "bathrooms": 4,
    "propertyType": "Condominium",
    "address": "151 Richmond Street, Avalon, West Virginia, 8896",
    "lastSaleDate": "2023-12-27",
    "latitude": 89.953857,
    "longitude": 141.55586,
    "rent": 142,
    "name": "Sullivan"
  },
  {
    "id": "633965d588632ae503493694",
    "city": "Templeton",
    "state": "Nebraska",
    "bedrooms": 7,
    "country": "Heard and McDonald Islands",
    "squareFootage": 3198,
    "picture": "http://placehold.it/32x32",
    "yearBuilt": 1925,
    "bathrooms": 5,
    "propertyType": "Residential Area",
    "address": "697 Tompkins Place, Craig, New Mexico, 823",
    "lastSaleDate": "2023-09-23",
    "latitude": -23.575049,
    "longitude": -2.328874,
    "rent": 243,
    "name": "Zelma"
  },
  {
    "id": "633965d54dfd07d35b9c8134",
    "city": "Naomi",
    "state": "New Jersey",
    "bedrooms": 8,
    "country": "Christmas Island",
    "squareFootage": 1834,
    "picture": "http://placehold.it/32x32",
    "yearBuilt": 1986,
    "bathrooms": 2,
    "propertyType": "Commercial Real Estate",
    "address": "781 Arkansas Drive, Cressey, Idaho, 8878",
    "lastSaleDate": "2024-11-29",
    "latitude": 43.929555,
    "longitude": 34.788501,
    "rent": 1233,
    "name": "Osborne"
  },
  {
    "id": "633965d5301111faf4c2dba0",
    "city": "Iberia",
    "state": "Louisiana",
    "bedrooms": 2,
    "country": "Cape Verde",
    "squareFootage": 1693,
    "picture": "http://placehold.it/32x32",
    "yearBuilt": 1931,
    "bathrooms": 2,
    "propertyType": "Apartment",
    "address": "881 School Lane, Steinhatchee, Rhode Island, 6747",
    "lastSaleDate": "2024-07-23",
    "latitude": -15.742485,
    "longitude": -32.29342,
    "rent": 1182,
    "name": "Julie"
  },
  {
    "id": "633965d5587e8ee9d42eac5f",
    "city": "Neahkahnie",
    "state": "Texas",
    "bedrooms": 4,
    "country": "Ethiopia",
    "squareFootage": 1665,
    "picture": "http://placehold.it/32x32",
    "yearBuilt": 2012,
    "bathrooms": 3,
    "propertyType": "Commercial Real Estate",
    "address": "620 Fane Court, Mapletown, Alabama, 4523",
    "lastSaleDate": "2024-06-30",
    "latitude": -34.277903,
    "longitude": 97.237085,
    "rent": 764,
    "name": "Marcy"
  },
  {
    "id": "633965d55d60173969d8b2aa",
    "city": "Derwood",
    "state": "Federated States Of Micronesia",
    "bedrooms": 2,
    "country": "Fiji",
    "squareFootage": 2862,
    "picture": "http://placehold.it/32x32",
    "yearBuilt": 1996,
    "bathrooms": 6,
    "propertyType": "Commercial Real Estate",
    "address": "783 Wogan Terrace, Murillo, Oklahoma, 1839",
    "lastSaleDate": "2024-04-12",
    "latitude": -48.079161,
    "longitude": 9.757106,
    "rent": 972,
    "name": "Kemp"
  },
  {
    "id": "633965d5962019598b0f6f0a",
    "city": "Olney",
    "state": "Northern Mariana Islands",
    "bedrooms": 3,
    "country": "Yugoslavia",
    "squareFootage": 2492,
    "picture": "http://placehold.it/32x32",
    "yearBuilt": 1946,
    "bathrooms": 4,
    "propertyType": "Condominium",
    "address": "254 Allen Avenue, Dotsero, Washington, 9813",
    "lastSaleDate": "2024-12-05",
    "latitude": -65.089185,
    "longitude": -30.901591,
    "rent": 543,
    "name": "Branch"
  },
  {
    "id": "633965d558a1f33194fabe7f",
    "city": "Wanship",
    "state": "Delaware",
    "bedrooms": 6,
    "country": "Latvia",
    "squareFootage": 2742,
    "picture": "http://placehold.it/32x32",
    "yearBuilt": 1923,
    "bathrooms": 2,
    "propertyType": "Personal Property",
    "address": "857 Butler Street, Gratton, Pennsylvania, 9730",
    "lastSaleDate": "2022-12-09",
    "latitude": 45.576293,
    "longitude": -162.476986,
    "rent": 349,
    "name": "Dixon"
  },
  {
    "id": "633965d51eae0a1598c693ee",
    "city": "Roosevelt",
    "state": "Kentucky",
    "bedrooms": 9,
    "country": "Burundi",
    "squareFootage": 1912,
    "picture": "http://placehold.it/32x32",
    "yearBuilt": 1953,
    "bathrooms": 6,
    "propertyType": "Personal Property",
    "address": "543 Hendrickson Place, Limestone, District Of Columbia, 4030",
    "lastSaleDate": "2023-07-14",
    "latitude": -50.61852,
    "longitude": -37.954674,
    "rent": 1464,
    "name": "Noreen"
  },
  {
    "id": "633965d571ca45c50998bc1a",
    "city": "Defiance",
    "state": "Mississippi",
    "bedrooms": 8,
    "country": "Thailand",
    "squareFootage": 3698,
    "picture": "http://placehold.it/32x32",
    "yearBuilt": 1935,
    "bathrooms": 4,
    "propertyType": "Condominium",
    "address": "398 Dover Street, Fairmount, Guam, 5852",
    "lastSaleDate": "2023-02-05",
    "latitude": 7.163884,
    "longitude": -43.377294,
    "rent": 755,
    "name": "Roy"
  },
  {
    "id": "633965d52ffe011d3bdad9ea",
    "city": "Southmont",
    "state": "Palau",
    "bedrooms": 4,
    "country": "Saint Vincent and The Grenadines",
    "squareFootage": 2315,
    "picture": "http://placehold.it/32x32",
    "yearBuilt": 2003,
    "bathrooms": 4,
    "propertyType": "Residential Area",
    "address": "750 Mill Street, Katonah, Oregon, 1908",
    "lastSaleDate": "2024-05-04",
    "latitude": 53.912516,
    "longitude": -106.610801,
    "rent": 123,
    "name": "Christine"
  },
  {
    "id": "633965d572d38a4bf4cb7028",
    "city": "Loomis",
    "state": "Iowa",
    "bedrooms": 9,
    "country": "Iraq",
    "squareFootage": 3170,
    "picture": "http://placehold.it/32x32",
    "yearBuilt": 2013,
    "bathrooms": 5,
    "propertyType": "Commercial Real Estate",
    "address": "627 Noel Avenue, Hiwasse, Hawaii, 4821",
    "lastSaleDate": "2023-09-19",
    "latitude": -6.577026,
    "longitude": 33.529267,
    "rent": 1427,
    "name": "Cooper"
  },
  {
    "id": "633965d517380bba1401244c",
    "city": "Loma",
    "state": "Florida",
    "bedrooms": 10,
    "country": "Vanuatu",
    "squareFootage": 1087,
    "picture": "http://placehold.it/32x32",
    "yearBuilt": 1971,
    "bathrooms": 2,
    "propertyType": "Apartment",
    "address": "874 Cornelia Street, Siglerville, American Samoa, 2486",
    "lastSaleDate": "2024-06-17",
    "latitude": -53.869663,
    "longitude": 50.095696,
    "rent": 155,
    "name": "Charmaine"
  },
  {
    "id": "633965d576785821f4065796",
    "city": "Berlin",
    "state": "Nevada",
    "bedrooms": 4,
    "country": "Bulgaria",
    "squareFootage": 2192,
    "picture": "http://placehold.it/32x32",
    "yearBuilt": 1963,
    "bathrooms": 4,
    "propertyType": "Multifamily Residential",
    "address": "128 Turnbull Avenue, Tyhee, Tennessee, 9327",
    "lastSaleDate": "2023-10-06",
    "latitude": -5.817628,
    "longitude": 135.069004,
    "rent": 738,
    "name": "Elnora"
  },
  {
    "id": "633965d5695f3f0747f065c0",
    "city": "Graball",
    "state": "Indiana",
    "bedrooms": 9,
    "country": "Greece",
    "squareFootage": 3643,
    "picture": "http://placehold.it/32x32",
    "yearBuilt": 2016,
    "bathrooms": 6,
    "propertyType": "Single Family Home",
    "address": "772 Baltic Street, Chicopee, Illinois, 8288",
    "lastSaleDate": "2024-07-22",
    "latitude": 2.549506,
    "longitude": -13.776885,
    "rent": 176,
    "name": "Golden"
  },
  {
    "id": "633965d5ac1b077ed53be9e7",
    "city": "Beaverdale",
    "state": "Arizona",
    "bedrooms": 3,
    "country": "Rwanda",
    "squareFootage": 1425,
    "picture": "http://placehold.it/32x32",
    "yearBuilt": 1955,
    "bathrooms": 5,
    "propertyType": "Personal Property",
    "address": "874 Berriman Street, Geyserville, Puerto Rico, 3941",
    "lastSaleDate": "2024-07-11",
    "latitude": 83.079845,
    "longitude": -27.828656,
    "rent": 478,
    "name": "Gale"
  },
  {
    "id": "633965d57234e620264f7249",
    "city": "Osage",
    "state": "Georgia",
    "bedrooms": 10,
    "country": "Mauritania",
    "squareFootage": 1706,
    "picture": "http://placehold.it/32x32",
    "yearBuilt": 1992,
    "bathrooms": 4,
    "propertyType": "Residential Area",
    "address": "249 Woodside Avenue, Brownlee, New Hampshire, 6872",
    "lastSaleDate": "2023-12-26",
    "latitude": -61.159537,
    "longitude": -34.760582,
    "rent": 794,
    "name": "Blackburn"
  },
  {
    "id": "633965d5fc2c811b42fa6249",
    "city": "Shaft",
    "state": "Utah",
    "bedrooms": 3,
    "country": "Syria",
    "squareFootage": 1276,
    "picture": "http://placehold.it/32x32",
    "yearBuilt": 2014,
    "bathrooms": 4,
    "propertyType": "Single Family Home",
    "address": "152 Post Court, Oasis, Wyoming, 8434",
    "lastSaleDate": "2023-01-26",
    "latitude": 4.947526,
    "longitude": -14.2991,
    "rent": 186,
    "name": "Bridgette"
  },
  {
    "id": "633965d50875cba466fc1449",
    "city": "Freetown",
    "state": "Virginia",
    "bedrooms": 5,
    "country": "Eritrea",
    "squareFootage": 2882,
    "picture": "http://placehold.it/32x32",
    "yearBuilt": 1922,
    "bathrooms": 3,
    "propertyType": "Single Family Home",
    "address": "795 Newport Street, Kraemer, Minnesota, 9585",
    "lastSaleDate": "2024-03-04",
    "latitude": -62.134565,
    "longitude": -96.342814,
    "rent": 814,
    "name": "Tamika"
  },
  {
    "id": "633965d524e228b8addec246",
    "city": "Riceville",
    "state": "Vermont",
    "bedrooms": 5,
    "country": "Liberia",
    "squareFootage": 3253,
    "picture": "http://placehold.it/32x32",
    "yearBuilt": 1903,
    "bathrooms": 3,
    "propertyType": "Multifamily Residential",
    "address": "552 Knapp Street, Alden, Ohio, 3962",
    "lastSaleDate": "2024-08-09",
    "latitude": 72.743683,
    "longitude": -131.859023,
    "rent": 257,
    "name": "Cannon"
  },
  {
    "id": "633965d5d612eb0fda52d798",
    "city": "Yogaville",
    "state": "Wisconsin",
    "bedrooms": 5,
    "country": "Nauru",
    "squareFootage": 1715,
    "picture": "http://placehold.it/32x32",
    "yearBuilt": 2018,
    "bathrooms": 6,
    "propertyType": "Single Family Home",
    "address": "292 Lenox Road, Rosewood, South Dakota, 6104",
    "lastSaleDate": "2024-08-25",
    "latitude": -51.03097,
    "longitude": -82.98945,
    "rent": 1310,
    "name": "Daniel"
  },
  {
    "id": "633965d54d7bc03198f6e0cf",
    "city": "Eastmont",
    "state": "Alaska",
    "bedrooms": 10,
    "country": "Sierra Leone",
    "squareFootage": 1070,
    "picture": "http://placehold.it/32x32",
    "yearBuilt": 1961,
    "bathrooms": 4,
    "propertyType": "Multifamily Residential",
    "address": "120 Walker Court, Enlow, Virgin Islands, 6685",
    "lastSaleDate": "2023-01-29",
    "latitude": 14.039371,
    "longitude": -94.087622,
    "rent": 44,
    "name": "Rosella"
  },
  {
    "id": "633965d544cb9ef95bcaac7b",
    "city": "Ronco",
    "state": "South Carolina",
    "bedrooms": 10,
    "country": "Venezuela",
    "squareFootage": 3312,
    "picture": "http://placehold.it/32x32",
    "yearBuilt": 1953,
    "bathrooms": 6,
    "propertyType": "Single Family Home",
    "address": "981 Borinquen Pl, Waverly, California, 2727",
    "lastSaleDate": "2024-12-15",
    "latitude": -89.261134,
    "longitude": 83.842732,
    "rent": 80,
    "name": "Madeline"
  },
  {
    "id": "633965d5c799dca4b9455f49",
    "city": "Navarre",
    "state": "Colorado",
    "bedrooms": 6,
    "country": "Ukraine",
    "squareFootage": 1772,
    "picture": "http://placehold.it/32x32",
    "yearBuilt": 1954,
    "bathrooms": 5,
    "propertyType": "Commercial Real Estate",
    "address": "457 Debevoise Street, Waterloo, Connecticut, 1577",
    "lastSaleDate": "2023-09-01",
    "latitude": -84.670446,
    "longitude": 136.938723,
    "rent": 490,
    "name": "Jodie"
  },
  {
    "id": "633965d5f3037d162051b913",
    "city": "Hebron",
    "state": "Montana",
    "bedrooms": 10,
    "country": "New Zealand",
    "squareFootage": 1603,
    "picture": "http://placehold.it/32x32",
    "yearBuilt": 1991,
    "bathrooms": 5,
    "propertyType": "Apartment",
    "address": "359 Navy Street, Wadsworth, Maine, 9314",
    "lastSaleDate": "2024-12-04",
    "latitude": -42.683294,
    "longitude": -87.898181,
    "rent": 61,
    "name": "Mcleod"
  },
  {
    "id": "633965d5528c39d1c626f3e2",
    "city": "Robbins",
    "state": "Kansas",
    "bedrooms": 10,
    "country": "Germany",
    "squareFootage": 3208,
    "picture": "http://placehold.it/32x32",
    "yearBuilt": 1965,
    "bathrooms": 5,
    "propertyType": "Single Family Home",
    "address": "895 Junius Street, Hiko, Michigan, 1142",
    "lastSaleDate": "2022-10-21",
    "latitude": 2.911389,
    "longitude": -174.609684,
    "rent": 690,
    "name": "Simpson"
  },
  {
    "id": "633965d553fa2db71216ce8f",
    "city": "Canoochee",
    "state": "North Dakota",
    "bedrooms": 4,
    "country": "Armenia",
    "squareFootage": 3877,
    "picture": "http://placehold.it/32x32",
    "yearBuilt": 1962,
    "bathrooms": 5,
    "propertyType": "Commercial Real Estate",
    "address": "535 Adelphi Street, Trona, Missouri, 1917",
    "lastSaleDate": "2023-07-21",
    "latitude": 70.938712,
    "longitude": 133.617585,
    "rent": 120,
    "name": "Castaneda"
  },
  {
    "id": "633965d593c01b94274909da",
    "city": "Richford",
    "state": "Maryland",
    "bedrooms": 8,
    "country": "Montserrat",
    "squareFootage": 2400,
    "picture": "http://placehold.it/32x32",
    "yearBuilt": 1972,
    "bathrooms": 4,
    "propertyType": "Multifamily Residential",
    "address": "387 Forrest Street, Wakulla, North Carolina, 4110",
    "lastSaleDate": "2024-03-17",
    "latitude": 16.148901,
    "longitude": 74.658988,
    "rent": 1092,
    "name": "Riley"
  },
  {
    "id": "633965d5a9960a2b9dee2891",
    "city": "Caln",
    "state": "Arkansas",
    "bedrooms": 8,
    "country": "Algeria",
    "squareFootage": 2907,
    "picture": "http://placehold.it/32x32",
    "yearBuilt": 1988,
    "bathrooms": 3,
    "propertyType": "Residential Area",
    "address": "152 Mill Avenue, Evergreen, Marshall Islands, 554",
    "lastSaleDate": "2023-03-04",
    "latitude": -82.377481,
    "longitude": 123.690346,
    "rent": 840,
    "name": "Leach"
  },
  {
    "id": "633965d524011b6a19e0778c",
    "city": "Gorst",
    "state": "Massachusetts",
    "bedrooms": 6,
    "country": "Solomon Islands",
    "squareFootage": 3212,
    "picture": "http://placehold.it/32x32",
    "yearBuilt": 1915,
    "bathrooms": 4,
    "propertyType": "Commercial Real Estate",
    "address": "217 Jerome Avenue, Urie, West Virginia, 5237",
    "lastSaleDate": "2024-12-02",
    "latitude": 44.935258,
    "longitude": 81.301787,
    "rent": 1015,
    "name": "Bobbie"
  },
  {
    "id": "633965d557a45197f719361a",
    "city": "Waterview",
    "state": "Nebraska",
    "bedrooms": 10,
    "country": "Papua New Guinea",
    "squareFootage": 1804,
    "picture": "http://placehold.it/32x32",
    "yearBuilt": 1922,
    "bathrooms": 5,
    "propertyType": "Commercial Real Estate",
    "address": "717 Bristol Street, Gallina, New Mexico, 385",
    "lastSaleDate": "2022-10-25",
    "latitude": 39.192818,
    "longitude": -0.489742,
    "rent": 524,
    "name": "Griffith"
  },
  {
    "id": "633965d5da8422d302c899bf",
    "city": "Skyland",
    "state": "New Jersey",
    "bedrooms": 8,
    "country": "Brazil",
    "squareFootage": 1421,
    "picture": "http://placehold.it/32x32",
    "yearBuilt": 1909,
    "bathrooms": 4,
    "propertyType": "Multifamily Residential",
    "address": "351 Lawrence Avenue, Thermal, Idaho, 6551",
    "lastSaleDate": "2024-02-22",
    "latitude": -80.015935,
    "longitude": -128.030905,
    "rent": 153,
    "name": "Barlow"
  },
  {
    "id": "633965d56cde78a6753859c4",
    "city": "Bartley",
    "state": "Louisiana",
    "bedrooms": 5,
    "country": "Tokelau",
    "squareFootage": 1360,
    "picture": "http://placehold.it/32x32",
    "yearBuilt": 1981,
    "bathrooms": 4,
    "propertyType": "Commercial Real Estate",
    "address": "773 Williams Avenue, Manchester, Rhode Island, 4587",
    "lastSaleDate": "2024-09-11",
    "latitude": 27.712971,
    "longitude": -134.309693,
    "rent": 998,
    "name": "Carrie"
  },
  {
    "id": "633965d5910b9bc2e80948d1",
    "city": "Babb",
    "state": "Texas",
    "bedrooms": 4,
    "country": "Burkina Faso",
    "squareFootage": 1920,
    "picture": "http://placehold.it/32x32",
    "yearBuilt": 1914,
    "bathrooms": 4,
    "propertyType": "Multifamily Residential",
    "address": "268 Benson Avenue, Sena, Alabama, 632",
    "lastSaleDate": "2023-10-28",
    "latitude": -12.63228,
    "longitude": 128.039981,
    "rent": 371,
    "name": "Giles"
  },
  {
    "id": "633965d5cda942f6bc310552",
    "city": "Swartzville",
    "state": "Federated States Of Micronesia",
    "bedrooms": 3,
    "country": "Bouvet Island",
    "squareFootage": 2028,
    "picture": "http://placehold.it/32x32",
    "yearBuilt": 1938,
    "bathrooms": 3,
    "propertyType": "Residential Area",
    "address": "319 Johnson Avenue, Dragoon, Oklahoma, 3825",
    "lastSaleDate": "2024-03-28",
    "latitude": -85.439027,
    "longitude": -88.721212,
    "rent": 801,
    "name": "Beasley"
  },
  {
    "id": "633965d518a2b4c930b26ccf",
    "city": "Brownsville",
    "state": "Northern Mariana Islands",
    "bedrooms": 2,
    "country": "San Marino",
    "squareFootage": 2385,
    "picture": "http://placehold.it/32x32",
    "yearBuilt": 1925,
    "bathrooms": 5,
    "propertyType": "Apartment",
    "address": "266 Halsey Street, Taycheedah, Washington, 5952",
    "lastSaleDate": "2024-11-20",
    "latitude": 64.168605,
    "longitude": -85.747158,
    "rent": 943,
    "name": "Taylor"
  },
  {
    "id": "633965d5ca631f6b0f5a289d",
    "city": "Southview",
    "state": "Delaware",
    "bedrooms": 2,
    "country": "United Arab Emirates",
    "squareFootage": 2727,
    "picture": "http://placehold.it/32x32",
    "yearBuilt": 1986,
    "bathrooms": 6,
    "propertyType": "Personal Property",
    "address": "497 Highland Avenue, Whitehaven, Pennsylvania, 4492",
    "lastSaleDate": "2024-01-02",
    "latitude": -49.730114,
    "longitude": 165.747096,
    "rent": 1464,
    "name": "Clayton"
  },
  {
    "id": "633965d5485adb4aecb2bb3e",
    "city": "Malott",
    "state": "Kentucky",
    "bedrooms": 7,
    "country": "Uganda",
    "squareFootage": 2484,
    "picture": "http://placehold.it/32x32",
    "yearBuilt": 1946,
    "bathrooms": 2,
    "propertyType": "Apartment",
    "address": "379 Division Avenue, Convent, District Of Columbia, 8321",
    "lastSaleDate": "2024-04-24",
    "latitude": -12.038054,
    "longitude": -43.457506,
    "rent": 268,
    "name": "Martin"
  },
  {
    "id": "633965d56f10ddb8faed7ef4",
    "city": "Corriganville",
    "state": "Mississippi",
    "bedrooms": 5,
    "country": "Equatorial Guinea",
    "squareFootage": 2046,
    "picture": "http://placehold.it/32x32",
    "yearBuilt": 1905,
    "bathrooms": 5,
    "propertyType": "Single Family Home",
    "address": "939 Amity Street, Thatcher, Guam, 8350",
    "lastSaleDate": "2023-07-21",
    "latitude": -88.393239,
    "longitude": -150.777901,
    "rent": 1053,
    "name": "Angie"
  },
  {
    "id": "633965d5999c31bf0fb1f62a",
    "city": "Indio",
    "state": "Palau",
    "bedrooms": 3,
    "country": "Vatican City State (Holy See)",
    "squareFootage": 2341,
    "picture": "http://placehold.it/32x32",
    "yearBuilt": 1966,
    "bathrooms": 2,
    "propertyType": "Single Family Home",
    "address": "714 Kathleen Court, Greensburg, Oregon, 5746",
    "lastSaleDate": "2024-05-05",
    "latitude": -42.444448,
    "longitude": 149.618259,
    "rent": 1358,
    "name": "White"
  },
  {
    "id": "633965d5bb2bef50010caead",
    "city": "Floris",
    "state": "Iowa",
    "bedrooms": 5,
    "country": "Mexico",
    "squareFootage": 2638,
    "picture": "http://placehold.it/32x32",
    "yearBuilt": 1970,
    "bathrooms": 2,
    "propertyType": "Single Family Home",
    "address": "184 Lott Place, Hayes, Hawaii, 702",
    "lastSaleDate": "2024-02-27",
    "latitude": 43.854486,
    "longitude": 76.10953,
    "rent": 613,
    "name": "Courtney"
  },
  {
    "id": "633965d552375eec2a18c599",
    "city": "Westboro",
    "state": "Florida",
    "bedrooms": 7,
    "country": "Zaire",
    "squareFootage": 2302,
    "picture": "http://placehold.it/32x32",
    "yearBuilt": 1954,
    "bathrooms": 6,
    "propertyType": "Commercial Real Estate",
    "address": "756 Gaylord Drive, Vienna, American Samoa, 2861",
    "lastSaleDate": "2023-10-20",
    "latitude": -71.220243,
    "longitude": -50.308063,
    "rent": 799,
    "name": "Constance"
  },
  {
    "id": "633965d5b82ef7b2ec86fb51",
    "city": "Barronett",
    "state": "Nevada",
    "bedrooms": 7,
    "country": "Afghanistan",
    "squareFootage": 2149,
    "picture": "http://placehold.it/32x32",
    "yearBuilt": 1929,
    "bathrooms": 4,
    "propertyType": "Commercial Real Estate",
    "address": "114 Miami Court, Allensworth, Tennessee, 2310",
    "lastSaleDate": "2022-11-16",
    "latitude": 46.965436,
    "longitude": -146.601956,
    "rent": 260,
    "name": "Rosa"
  },
  {
    "id": "633965d5435b2bd9e4124d4e",
    "city": "Herald",
    "state": "Indiana",
    "bedrooms": 2,
    "country": "Madagascar",
    "squareFootage": 3787,
    "picture": "http://placehold.it/32x32",
    "yearBuilt": 1978,
    "bathrooms": 4,
    "propertyType": "Commercial Real Estate",
    "address": "572 Schermerhorn Street, Bynum, Illinois, 461",
    "lastSaleDate": "2023-10-21",
    "latitude": -54.150018,
    "longitude": -85.003624,
    "rent": 1064,
    "name": "Tonia"
  },
  {
    "id": "633965d5b6fcbca918dee965",
    "city": "Soudan",
    "state": "Arizona",
    "bedrooms": 2,
    "country": "Swaziland",
    "squareFootage": 3620,
    "picture": "http://placehold.it/32x32",
    "yearBuilt": 1945,
    "bathrooms": 3,
    "propertyType": "Commercial Real Estate",
    "address": "756 Vine Street, Comptche, Puerto Rico, 904",
    "lastSaleDate": "2024-06-06",
    "latitude": 74.283162,
    "longitude": 93.907853,
    "rent": 1105,
    "name": "Allison"
  },
  {
    "id": "633965d5dac9cf210060f6fa",
    "city": "Norwood",
    "state": "Georgia",
    "bedrooms": 6,
    "country": "Svalbard and Jan Mayen Islands",
    "squareFootage": 2092,
    "picture": "http://placehold.it/32x32",
    "yearBuilt": 1983,
    "bathrooms": 4,
    "propertyType": "Commercial Real Estate",
    "address": "608 Autumn Avenue, Sims, New Hampshire, 951",
    "lastSaleDate": "2022-10-16",
    "latitude": 28.30217,
    "longitude": -55.340026,
    "rent": 332,
    "name": "Sherri"
  },
  {
    "id": "633965d54f88bbfd442827fe",
    "city": "Dellview",
    "state": "Utah",
    "bedrooms": 4,
    "country": "Iceland",
    "squareFootage": 3874,
    "picture": "http://placehold.it/32x32",
    "yearBuilt": 1900,
    "bathrooms": 3,
    "propertyType": "Commercial Real Estate",
    "address": "179 Duryea Place, Coaldale, Wyoming, 525",
    "lastSaleDate": "2024-09-02",
    "latitude": 17.406427,
    "longitude": 155.403294,
    "rent": 531,
    "name": "Willie"
  },
  {
    "id": "633965d5d0e603c0bddb57bc",
    "city": "Brewster",
    "state": "Virginia",
    "bedrooms": 5,
    "country": "Belgium",
    "squareFootage": 1825,
    "picture": "http://placehold.it/32x32",
    "yearBuilt": 2012,
    "bathrooms": 5,
    "propertyType": "Multifamily Residential",
    "address": "527 Stewart Street, Laurelton, Minnesota, 7215",
    "lastSaleDate": "2023-11-22",
    "latitude": -42.159983,
    "longitude": 108.57578,
    "rent": 139,
    "name": "Lora"
  },
  {
    "id": "633965d5521c61883728aa45",
    "city": "Fedora",
    "state": "Vermont",
    "bedrooms": 8,
    "country": "Belize",
    "squareFootage": 2121,
    "picture": "http://placehold.it/32x32",
    "yearBuilt": 1951,
    "bathrooms": 6,
    "propertyType": "Apartment",
    "address": "506 Hopkins Street, Chloride, Ohio, 5682",
    "lastSaleDate": "2023-03-20",
    "latitude": 63.23886,
    "longitude": -11.908296,
    "rent": 999,
    "name": "Amparo"
  },
  {
    "id": "633965d5b15590ae2cf810f6",
    "city": "Darbydale",
    "state": "Wisconsin",
    "bedrooms": 2,
    "country": "Norway",
    "squareFootage": 3979,
    "picture": "http://placehold.it/32x32",
    "yearBuilt": 1975,
    "bathrooms": 6,
    "propertyType": "Residential Area",
    "address": "845 Maple Avenue, Dodge, South Dakota, 7991",
    "lastSaleDate": "2023-11-03",
    "latitude": 81.458479,
    "longitude": -65.606411,
    "rent": 1397,
    "name": "Walton"
  },
  {
    "id": "633965d52d7031d56d1bb718",
    "city": "Ventress",
    "state": "Alaska",
    "bedrooms": 8,
    "country": "Palau",
    "squareFootage": 2888,
    "picture": "http://placehold.it/32x32",
    "yearBuilt": 1983,
    "bathrooms": 4,
    "propertyType": "Residential Area",
    "address": "420 Ocean Avenue, Kenwood, Virgin Islands, 7841",
    "lastSaleDate": "2023-11-23",
    "latitude": 75.225548,
    "longitude": 39.248741,
    "rent": 275,
    "name": "Reese"
  },
  {
    "id": "633965d550be69e1b20a72b2",
    "city": "Hiseville",
    "state": "South Carolina",
    "bedrooms": 8,
    "country": "Dominica",
    "squareFootage": 1017,
    "picture": "http://placehold.it/32x32",
    "yearBuilt": 1991,
    "bathrooms": 4,
    "propertyType": "Personal Property",
    "address": "119 Woodhull Street, Stouchsburg, California, 4046",
    "lastSaleDate": "2023-12-21",
    "latitude": 58.473149,
    "longitude": -48.670292,
    "rent": 1064,
    "name": "Vance"
  },
  {
    "id": "633965d526daa52deb2c5797",
    "city": "Thornport",
    "state": "Colorado",
    "bedrooms": 3,
    "country": "Czech Republic",
    "squareFootage": 1603,
    "picture": "http://placehold.it/32x32",
    "yearBuilt": 1924,
    "bathrooms": 6,
    "propertyType": "Condominium",
    "address": "707 Friel Place, Snyderville, Connecticut, 6687",
    "lastSaleDate": "2024-11-13",
    "latitude": 28.26825,
    "longitude": -179.290124,
    "rent": 1268,
    "name": "Harrell"
  },
  {
    "id": "633965d5c5d25ba049260445",
    "city": "Groton",
    "state": "Montana",
    "bedrooms": 9,
    "country": "Faroe Islands",
    "squareFootage": 2283,
    "picture": "http://placehold.it/32x32",
    "yearBuilt": 1948,
    "bathrooms": 2,
    "propertyType": "Commercial Real Estate",
    "address": "281 Bayview Place, Stevens, Maine, 4442",
    "lastSaleDate": "2023-06-14",
    "latitude": -50.741108,
    "longitude": 101.60288,
    "rent": 893,
    "name": "Elvira"
  },
  {
    "id": "633965d59f2d9294de0f7789",
    "city": "Trail",
    "state": "Kansas",
    "bedrooms": 5,
    "country": "Morocco",
    "squareFootage": 3821,
    "picture": "http://placehold.it/32x32",
    "yearBuilt": 1917,
    "bathrooms": 3,
    "propertyType": "Single Family Home",
    "address": "739 Hope Street, Cataract, Michigan, 5941",
    "lastSaleDate": "2022-10-26",
    "latitude": -89.975978,
    "longitude": -14.181529,
    "rent": 1448,
    "name": "Alisa"
  },
  {
    "id": "633965d52ae4bc74961e2c06",
    "city": "Fresno",
    "state": "North Dakota",
    "bedrooms": 5,
    "country": "Norfolk Island",
    "squareFootage": 1471,
    "picture": "http://placehold.it/32x32",
    "yearBuilt": 2019,
    "bathrooms": 5,
    "propertyType": "Condominium",
    "address": "344 Monument Walk, Weogufka, Missouri, 1248",
    "lastSaleDate": "2024-06-12",
    "latitude": -55.787547,
    "longitude": -108.600895,
    "rent": 902,
    "name": "Gamble"
  },
  {
    "id": "633965d50fe9b5a43970e15e",
    "city": "Leroy",
    "state": "Maryland",
    "bedrooms": 10,
    "country": "Anguilla",
    "squareFootage": 1240,
    "picture": "http://placehold.it/32x32",
    "yearBuilt": 1913,
    "bathrooms": 5,
    "propertyType": "Single Family Home",
    "address": "306 Madison Place, Garnet, North Carolina, 2680",
    "lastSaleDate": "2024-07-24",
    "latitude": -45.240999,
    "longitude": 120.058257,
    "rent": 106,
    "name": "Garrett"
  },
  {
    "id": "633965d51ffa54538c5a34d6",
    "city": "Efland",
    "state": "Arkansas",
    "bedrooms": 6,
    "country": "Northern Mariana Islands",
    "squareFootage": 3848,
    "picture": "http://placehold.it/32x32",
    "yearBuilt": 1996,
    "bathrooms": 2,
    "propertyType": "Personal Property",
    "address": "664 Strickland Avenue, Ola, Marshall Islands, 9411",
    "lastSaleDate": "2024-06-26",
    "latitude": -89.389376,
    "longitude": 47.42542,
    "rent": 844,
    "name": "Salas"
  },
  {
    "id": "633965d5a5d3c7e1f75d1087",
    "city": "Jacksonburg",
    "state": "Massachusetts",
    "bedrooms": 5,
    "country": "Canada",
    "squareFootage": 2694,
    "picture": "http://placehold.it/32x32",
    "yearBuilt": 1984,
    "bathrooms": 2,
    "propertyType": "Single Family Home",
    "address": "490 Hill Street, Accoville, West Virginia, 7277",
    "lastSaleDate": "2023-05-17",
    "latitude": -30.124906,
    "longitude": -95.430458,
    "rent": 1497,
    "name": "Schultz"
  },
  {
    "id": "633965d5dbd6c0a75d940a96",
    "city": "Crucible",
    "state": "Nebraska",
    "bedrooms": 6,
    "country": "Samoa",
    "squareFootage": 3962,
    "picture": "http://placehold.it/32x32",
    "yearBuilt": 1962,
    "bathrooms": 6,
    "propertyType": "Single Family Home",
    "address": "170 Durland Place, Tampico, New Mexico, 2257",
    "lastSaleDate": "2023-07-04",
    "latitude": -39.784582,
    "longitude": 93.718392,
    "rent": 22,
    "name": "Lynda"
  },
  {
    "id": "633965d5104a1fb154007739",
    "city": "Vale",
    "state": "New Jersey",
    "bedrooms": 4,
    "country": "Bahrain",
    "squareFootage": 2618,
    "picture": "http://placehold.it/32x32",
    "yearBuilt": 1999,
    "bathrooms": 3,
    "propertyType": "Single Family Home",
    "address": "818 Hemlock Street, Utting, Idaho, 9790",
    "lastSaleDate": "2024-12-03",
    "latitude": 11.566943,
    "longitude": 8.148631,
    "rent": 712,
    "name": "Doris"
  },
  {
    "id": "633965d5de81b133fc907a03",
    "city": "Otranto",
    "state": "Louisiana",
    "bedrooms": 9,
    "country": "Jordan",
    "squareFootage": 2874,
    "picture": "http://placehold.it/32x32",
    "yearBuilt": 1939,
    "bathrooms": 2,
    "propertyType": "Apartment",
    "address": "713 Havemeyer Street, Spokane, Rhode Island, 2749",
    "lastSaleDate": "2024-01-12",
    "latitude": -19.222155,
    "longitude": 83.527392,
    "rent": 902,
    "name": "Rosario"
  },
  {
    "id": "633965d52c985f58bcfafa5f",
    "city": "Blairstown",
    "state": "Texas",
    "bedrooms": 6,
    "country": "Argentina",
    "squareFootage": 2343,
    "picture": "http://placehold.it/32x32",
    "yearBuilt": 1957,
    "bathrooms": 4,
    "propertyType": "Apartment",
    "address": "659 Duffield Street, Talpa, Alabama, 3921",
    "lastSaleDate": "2024-01-15",
    "latitude": -25.635596,
    "longitude": 140.206642,
    "rent": 809,
    "name": "Barnes"
  },
  {
    "id": "633965d55609d0d2a5b741f6",
    "city": "Longoria",
    "state": "Federated States Of Micronesia",
    "bedrooms": 7,
    "country": "Benin",
    "squareFootage": 1538,
    "picture": "http://placehold.it/32x32",
    "yearBuilt": 1901,
    "bathrooms": 2,
    "propertyType": "Personal Property",
    "address": "583 Lincoln Place, Caspar, Oklahoma, 869",
    "lastSaleDate": "2024-05-03",
    "latitude": 51.596656,
    "longitude": -156.938565,
    "rent": 57,
    "name": "Johnston"
  },
  {
    "id": "633965d53bdf57fed8c237b7",
    "city": "Charco",
    "state": "Northern Mariana Islands",
    "bedrooms": 3,
    "country": "United States",
    "squareFootage": 1464,
    "picture": "http://placehold.it/32x32",
    "yearBuilt": 1909,
    "bathrooms": 3,
    "propertyType": "Single Family Home",
    "address": "234 Kingsway Place, Silkworth, Washington, 4380",
    "lastSaleDate": "2023-10-27",
    "latitude": 8.938657,
    "longitude": -142.607564,
    "rent": 232,
    "name": "Mara"
  },
  {
    "id": "633965d58363fd94c872020a",
    "city": "Cade",
    "state": "Delaware",
    "bedrooms": 4,
    "country": "Sao Tome and Principe",
    "squareFootage": 3790,
    "picture": "http://placehold.it/32x32",
    "yearBuilt": 1933,
    "bathrooms": 2,
    "propertyType": "Condominium",
    "address": "463 Henderson Walk, Salunga, Pennsylvania, 2823",
    "lastSaleDate": "2023-01-02",
    "latitude": 50.849867,
    "longitude": -82.647848,
    "rent": 834,
    "name": "Luann"
  },
  {
    "id": "633965d57e171663edd5859a",
    "city": "Ona",
    "state": "Kentucky",
    "bedrooms": 10,
    "country": "Iran",
    "squareFootage": 1993,
    "picture": "http://placehold.it/32x32",
    "yearBuilt": 1931,
    "bathrooms": 6,
    "propertyType": "Condominium",
    "address": "624 Underhill Avenue, Winfred, District Of Columbia, 6967",
    "lastSaleDate": "2023-07-04",
    "latitude": -5.650823,
    "longitude": -82.583096,
    "rent": 817,
    "name": "Irene"
  },
  {
    "id": "633965d5344f5512bb4538b3",
    "city": "Elwood",
    "state": "Mississippi",
    "bedrooms": 3,
    "country": "Peru",
    "squareFootage": 1214,
    "picture": "http://placehold.it/32x32",
    "yearBuilt": 1951,
    "bathrooms": 5,
    "propertyType": "Single Family Home",
    "address": "204 Just Court, Chilton, Guam, 3050",
    "lastSaleDate": "2024-07-02",
    "latitude": 5.321267,
    "longitude": -138.220696,
    "rent": 808,
    "name": "Compton"
  },
  {
    "id": "633965d5b868df9c5cf8cf9e",
    "city": "Marion",
    "state": "Palau",
    "bedrooms": 10,
    "country": "Colombia",
    "squareFootage": 1191,
    "picture": "http://placehold.it/32x32",
    "yearBuilt": 1924,
    "bathrooms": 5,
    "propertyType": "Single Family Home",
    "address": "468 Carroll Street, Sanborn, Oregon, 6189",
    "lastSaleDate": "2023-04-11",
    "latitude": -74.249411,
    "longitude": -138.225081,
    "rent": 275,
    "name": "Diana"
  },
  {
    "id": "633965d5fca8737d3b84fad0",
    "city": "Hamilton",
    "state": "Iowa",
    "bedrooms": 4,
    "country": "Mozambique",
    "squareFootage": 1192,
    "picture": "http://placehold.it/32x32",
    "yearBuilt": 2011,
    "bathrooms": 2,
    "propertyType": "Condominium",
    "address": "251 Lott Avenue, Salix, Hawaii, 3955",
    "lastSaleDate": "2022-10-24",
    "latitude": 9.235938,
    "longitude": -0.677636,
    "rent": 601,
    "name": "Matthews"
  },
  {
    "id": "633965d50bdf8d1d71fcd6b3",
    "city": "Kenvil",
    "state": "Florida",
    "bedrooms": 2,
    "country": "Paraguay",
    "squareFootage": 3000,
    "picture": "http://placehold.it/32x32",
    "yearBuilt": 1992,
    "bathrooms": 6,
    "propertyType": "Commercial Real Estate",
    "address": "297 Stone Avenue, Rew, American Samoa, 1550",
    "lastSaleDate": "2023-09-30",
    "latitude": 40.361923,
    "longitude": -46.211991,
    "rent": 619,
    "name": "Tia"
  },
  {
    "id": "633965d5b24dfc9e912ac9a4",
    "city": "Tuttle",
    "state": "Nevada",
    "bedrooms": 8,
    "country": "East Timor",
    "squareFootage": 3059,
    "picture": "http://placehold.it/32x32",
    "yearBuilt": 1916,
    "bathrooms": 5,
    "propertyType": "Multifamily Residential",
    "address": "913 Lee Avenue, Juarez, Tennessee, 3782",
    "lastSaleDate": "2023-06-07",
    "latitude": 71.28288,
    "longitude": 58.878779,
    "rent": 63,
    "name": "Wilcox"
  },
  {
    "id": "633965d51c2bf1bb871dac7f",
    "city": "Blackgum",
    "state": "Indiana",
    "bedrooms": 5,
    "country": "Tuvalu",
    "squareFootage": 3543,
    "picture": "http://placehold.it/32x32",
    "yearBuilt": 1978,
    "bathrooms": 6,
    "propertyType": "Single Family Home",
    "address": "841 Rochester Avenue, Buxton, Illinois, 8632",
    "lastSaleDate": "2023-11-19",
    "latitude": 50.57963,
    "longitude": -124.465169,
    "rent": 574,
    "name": "Reyes"
  },
  {
    "id": "633965d5fdd40b401914defe",
    "city": "Basye",
    "state": "Arizona",
    "bedrooms": 3,
    "country": "Brunei Darussalam",
    "squareFootage": 1966,
    "picture": "http://placehold.it/32x32",
    "yearBuilt": 1906,
    "bathrooms": 3,
    "propertyType": "Multifamily Residential",
    "address": "525 Times Placez, Centerville, Puerto Rico, 5717",
    "lastSaleDate": "2024-12-24",
    "latitude": -63.175244,
    "longitude": 143.855892,
    "rent": 34,
    "name": "Geneva"
  },
  {
    "id": "633965d5c3727cf08b19dced",
    "city": "Colton",
    "state": "Georgia",
    "bedrooms": 6,
    "country": "Chile",
    "squareFootage": 1024,
    "picture": "http://placehold.it/32x32",
    "yearBuilt": 1994,
    "bathrooms": 2,
    "propertyType": "Personal Property",
    "address": "528 Victor Road, Chemung, New Hampshire, 6177",
    "lastSaleDate": "2024-06-08",
    "latitude": -84.759949,
    "longitude": 118.452505,
    "rent": 467,
    "name": "Weiss"
  },
  {
    "id": "633965d51770f62735a00222",
    "city": "Lund",
    "state": "Utah",
    "bedrooms": 2,
    "country": "Moldova",
    "squareFootage": 2119,
    "picture": "http://placehold.it/32x32",
    "yearBuilt": 1908,
    "bathrooms": 5,
    "propertyType": "Single Family Home",
    "address": "773 Anthony Street, Fidelis, Wyoming, 5441",
    "lastSaleDate": "2024-12-28",
    "latitude": -52.858568,
    "longitude": -148.680904,
    "rent": 183,
    "name": "Whitney"
  },
  {
    "id": "633965d5b88b3dbf140f1815",
    "city": "Enetai",
    "state": "Virginia",
    "bedrooms": 7,
    "country": "Virgin Islands (British)",
    "squareFootage": 2400,
    "picture": "http://placehold.it/32x32",
    "yearBuilt": 1905,
    "bathrooms": 4,
    "propertyType": "Multifamily Residential",
    "address": "779 Sheffield Avenue, Aberdeen, Minnesota, 6842",
    "lastSaleDate": "2023-02-21",
    "latitude": 33.891174,
    "longitude": 140.90573,
    "rent": 1129,
    "name": "Colleen"
  },
  {
    "id": "633965d5c8d7e14ed976f3b9",
    "city": "Motley",
    "state": "Vermont",
    "bedrooms": 4,
    "country": "Ecuador",
    "squareFootage": 1465,
    "picture": "http://placehold.it/32x32",
    "yearBuilt": 1958,
    "bathrooms": 6,
    "propertyType": "Multifamily Residential",
    "address": "773 Chapel Street, Freeburn, Ohio, 2420",
    "lastSaleDate": "2022-11-03",
    "latitude": -0.309414,
    "longitude": -2.631182,
    "rent": 968,
    "name": "Ashley"
  },
  {
    "id": "633965d57e04b55008749d5a",
    "city": "Irwin",
    "state": "Wisconsin",
    "bedrooms": 2,
    "country": "Denmark",
    "squareFootage": 2334,
    "picture": "http://placehold.it/32x32",
    "yearBuilt": 1929,
    "bathrooms": 5,
    "propertyType": "Single Family Home",
    "address": "988 Sharon Street, Brogan, South Dakota, 2311",
    "lastSaleDate": "2024-06-01",
    "latitude": -65.598022,
    "longitude": 88.148309,
    "rent": 1455,
    "name": "Alana"
  },
  {
    "id": "633965d5c2ea3204b4d35a57",
    "city": "Fairhaven",
    "state": "Alaska",
    "bedrooms": 5,
    "country": "Maldives",
    "squareFootage": 2390,
    "picture": "http://placehold.it/32x32",
    "yearBuilt": 1923,
    "bathrooms": 5,
    "propertyType": "Commercial Real Estate",
    "address": "368 Gerritsen Avenue, Homestead, Virgin Islands, 9372",
    "lastSaleDate": "2024-09-28",
    "latitude": -84.670344,
    "longitude": 173.206549,
    "rent": 1198,
    "name": "Esmeralda"
  },
  {
    "id": "633965d521b9f48480793d3e",
    "city": "Dixie",
    "state": "South Carolina",
    "bedrooms": 6,
    "country": "Macau",
    "squareFootage": 1045,
    "picture": "http://placehold.it/32x32",
    "yearBuilt": 1909,
    "bathrooms": 3,
    "propertyType": "Commercial Real Estate",
    "address": "888 Franklin Avenue, Shepardsville, California, 1052",
    "lastSaleDate": "2023-06-23",
    "latitude": -30.373398,
    "longitude": -129.573908,
    "rent": 390,
    "name": "Brittney"
  },
  {
    "id": "633965d582bf491b5d16edc9",
    "city": "Washington",
    "state": "Colorado",
    "bedrooms": 5,
    "country": "Cote D'Ivoire (Ivory Coast)",
    "squareFootage": 2958,
    "picture": "http://placehold.it/32x32",
    "yearBuilt": 1962,
    "bathrooms": 6,
    "propertyType": "Condominium",
    "address": "593 Seigel Court, Hemlock, Connecticut, 2841",
    "lastSaleDate": "2023-05-14",
    "latitude": 87.760721,
    "longitude": -153.925425,
    "rent": 366,
    "name": "Lillie"
  },
  {
    "id": "633965d502b2849932a460cb",
    "city": "Morningside",
    "state": "Montana",
    "bedrooms": 3,
    "country": "French Guiana",
    "squareFootage": 3468,
    "picture": "http://placehold.it/32x32",
    "yearBuilt": 1942,
    "bathrooms": 6,
    "propertyType": "Residential Area",
    "address": "962 Lake Place, Frizzleburg, Maine, 6094",
    "lastSaleDate": "2024-11-29",
    "latitude": -7.977746,
    "longitude": -60.797704,
    "rent": 1146,
    "name": "Puckett"
  },
  {
    "id": "633965d5e9c4515931648baf",
    "city": "Riverton",
    "state": "Kansas",
    "bedrooms": 4,
    "country": "France",
    "squareFootage": 3459,
    "picture": "http://placehold.it/32x32",
    "yearBuilt": 2007,
    "bathrooms": 3,
    "propertyType": "Personal Property",
    "address": "131 Driggs Avenue, Waukeenah, Michigan, 891",
    "lastSaleDate": "2024-08-02",
    "latitude": 42.621556,
    "longitude": -179.297717,
    "rent": 1430,
    "name": "Bridges"
  },
  {
    "id": "633965d517d08838afeb57b2",
    "city": "Saranap",
    "state": "North Dakota",
    "bedrooms": 9,
    "country": "Hungary",
    "squareFootage": 2431,
    "picture": "http://placehold.it/32x32",
    "yearBuilt": 1920,
    "bathrooms": 6,
    "propertyType": "Residential Area",
    "address": "316 Crystal Street, Warren, Missouri, 9529",
    "lastSaleDate": "2023-07-16",
    "latitude": 37.605045,
    "longitude": -156.383173,
    "rent": 1177,
    "name": "Bolton"
  },
  {
    "id": "633965d5c659e625ac0703c9",
    "city": "Farmers",
    "state": "Maryland",
    "bedrooms": 4,
    "country": "Qatar",
    "squareFootage": 1383,
    "picture": "http://placehold.it/32x32",
    "yearBuilt": 1922,
    "bathrooms": 5,
    "propertyType": "Personal Property",
    "address": "903 Wyckoff Avenue, Belvoir, North Carolina, 905",
    "lastSaleDate": "2023-07-31",
    "latitude": -14.650932,
    "longitude": 115.243016,
    "rent": 740,
    "name": "Hardy"
  },
  {
    "id": "633965d567a921d872af9485",
    "city": "Rosedale",
    "state": "Arkansas",
    "bedrooms": 7,
    "country": "New Caledonia",
    "squareFootage": 2238,
    "picture": "http://placehold.it/32x32",
    "yearBuilt": 1981,
    "bathrooms": 6,
    "propertyType": "Personal Property",
    "address": "856 Strong Place, Leeper, Marshall Islands, 895",
    "lastSaleDate": "2024-02-01",
    "latitude": 61.818831,
    "longitude": 48.33014,
    "rent": 923,
    "name": "Lesley"
  },
  {
    "id": "633965d527652d91594a01e2",
    "city": "Vowinckel",
    "state": "Massachusetts",
    "bedrooms": 7,
    "country": "S. Georgia and S. Sandwich Isls.",
    "squareFootage": 2220,
    "picture": "http://placehold.it/32x32",
    "yearBuilt": 1960,
    "bathrooms": 4,
    "propertyType": "Commercial Real Estate",
    "address": "662 Madoc Avenue, Camptown, West Virginia, 3441",
    "lastSaleDate": "2024-06-15",
    "latitude": 26.351377,
    "longitude": 66.900592,
    "rent": 150,
    "name": "Judith"
  },
  {
    "id": "633965d5d4ea543daf50c4d9",
    "city": "Westmoreland",
    "state": "Nebraska",
    "bedrooms": 8,
    "country": "France, Metropolitan",
    "squareFootage": 3388,
    "picture": "http://placehold.it/32x32",
    "yearBuilt": 1944,
    "bathrooms": 2,
    "propertyType": "Single Family Home",
    "address": "695 Cyrus Avenue, Lithium, New Mexico, 9740",
    "lastSaleDate": "2023-09-20",
    "latitude": 6.262553,
    "longitude": 86.732012,
    "rent": 735,
    "name": "Wendy"
  },
  {
    "id": "633965d59ebd3b6120829775",
    "city": "Bath",
    "state": "New Jersey",
    "bedrooms": 7,
    "country": "Sweden",
    "squareFootage": 2289,
    "picture": "http://placehold.it/32x32",
    "yearBuilt": 1980,
    "bathrooms": 2,
    "propertyType": "Multifamily Residential",
    "address": "794 Prospect Place, Martinsville, Idaho, 8271",
    "lastSaleDate": "2023-04-20",
    "latitude": -23.70743,
    "longitude": -16.037032,
    "rent": 844,
    "name": "Sloan"
  },
  {
    "id": "633965d5edf231b6bfe4f61c",
    "city": "Adamstown",
    "state": "Louisiana",
    "bedrooms": 9,
    "country": "Micronesia",
    "squareFootage": 2514,
    "picture": "http://placehold.it/32x32",
    "yearBuilt": 1985,
    "bathrooms": 2,
    "propertyType": "Single Family Home",
    "address": "856 Tudor Terrace, Emory, Rhode Island, 9236",
    "lastSaleDate": "2024-03-08",
    "latitude": -0.512427,
    "longitude": -14.498836,
    "rent": 137,
    "name": "Gomez"
  },
  {
    "id": "633965d589ac6f18d274b99a",
    "city": "Finzel",
    "state": "Texas",
    "bedrooms": 5,
    "country": "Costa Rica",
    "squareFootage": 3748,
    "picture": "http://placehold.it/32x32",
    "yearBuilt": 1968,
    "bathrooms": 2,
    "propertyType": "Single Family Home",
    "address": "430 Argyle Road, Gerton, Alabama, 8145",
    "lastSaleDate": "2023-04-01",
    "latitude": -70.727451,
    "longitude": 88.475931,
    "rent": 245,
    "name": "Hines"
  },
  {
    "id": "633965d5cf03b947b40354b6",
    "city": "Vallonia",
    "state": "Federated States Of Micronesia",
    "bedrooms": 5,
    "country": "Seychelles",
    "squareFootage": 1852,
    "picture": "http://placehold.it/32x32",
    "yearBuilt": 1987,
    "bathrooms": 2,
    "propertyType": "Residential Area",
    "address": "900 Aberdeen Street, Tetherow, Oklahoma, 2151",
    "lastSaleDate": "2024-04-08",
    "latitude": -40.563308,
    "longitude": 14.984552,
    "rent": 35,
    "name": "Margo"
  },
  {
    "id": "633965d56f1edae8336ba365",
    "city": "Maxville",
    "state": "Northern Mariana Islands",
    "bedrooms": 6,
    "country": "Philippines",
    "squareFootage": 3470,
    "picture": "http://placehold.it/32x32",
    "yearBuilt": 1962,
    "bathrooms": 5,
    "propertyType": "Single Family Home",
    "address": "238 Butler Place, Singer, Washington, 7405",
    "lastSaleDate": "2024-07-11",
    "latitude": -67.467851,
    "longitude": 163.184529,
    "rent": 296,
    "name": "Belinda"
  },
  {
    "id": "633965d5c18c51460b0b3605",
    "city": "Cartwright",
    "state": "Delaware",
    "bedrooms": 6,
    "country": "Greenland",
    "squareFootage": 2234,
    "picture": "http://placehold.it/32x32",
    "yearBuilt": 1923,
    "bathrooms": 4,
    "propertyType": "Commercial Real Estate",
    "address": "372 Howard Avenue, Bangor, Pennsylvania, 9900",
    "lastSaleDate": "2024-11-19",
    "latitude": 29.852421,
    "longitude": 6.522419,
    "rent": 200,
    "name": "Bowen"
  },
  {
    "id": "633965d56197e5ca2a761375",
    "city": "Harmon",
    "state": "Kentucky",
    "bedrooms": 8,
    "country": "Lesotho",
    "squareFootage": 2812,
    "picture": "http://placehold.it/32x32",
    "yearBuilt": 1916,
    "bathrooms": 4,
    "propertyType": "Apartment",
    "address": "972 Schenck Place, Fredericktown, District Of Columbia, 1122",
    "lastSaleDate": "2024-10-23",
    "latitude": -21.76648,
    "longitude": 137.731494,
    "rent": 636,
    "name": "Navarro"
  },
  {
    "id": "633965d59e759a1dc6512c6a",
    "city": "Sugartown",
    "state": "Mississippi",
    "bedrooms": 3,
    "country": "Nicaragua",
    "squareFootage": 1483,
    "picture": "http://placehold.it/32x32",
    "yearBuilt": 2004,
    "bathrooms": 6,
    "propertyType": "Residential Area",
    "address": "159 McKibbin Street, Springhill, Guam, 4399",
    "lastSaleDate": "2024-09-14",
    "latitude": -86.457196,
    "longitude": -137.891647,
    "rent": 58,
    "name": "Alejandra"
  },
  {
    "id": "633965d50fc963a993fc224d",
    "city": "Kerby",
    "state": "Palau",
    "bedrooms": 5,
    "country": "Comoros",
    "squareFootage": 2496,
    "picture": "http://placehold.it/32x32",
    "yearBuilt": 1901,
    "bathrooms": 2,
    "propertyType": "Commercial Real Estate",
    "address": "481 Howard Alley, Century, Oregon, 4044",
    "lastSaleDate": "2024-05-18",
    "latitude": -65.056681,
    "longitude": -46.404673,
    "rent": 676,
    "name": "Simon"
  },
  {
    "id": "633965d5bcb3ba500ef11a69",
    "city": "Woodburn",
    "state": "Iowa",
    "bedrooms": 4,
    "country": "Mali",
    "squareFootage": 2967,
    "picture": "http://placehold.it/32x32",
    "yearBuilt": 1981,
    "bathrooms": 4,
    "propertyType": "Single Family Home",
    "address": "923 Desmond Court, Haena, Hawaii, 2025",
    "lastSaleDate": "2023-01-17",
    "latitude": -78.110413,
    "longitude": 19.747999,
    "rent": 1164,
    "name": "Bethany"
  },
  {
    "id": "633965d582744bcf90b0e1f5",
    "city": "Bancroft",
    "state": "Florida",
    "bedrooms": 2,
    "country": "Namibia",
    "squareFootage": 1884,
    "picture": "http://placehold.it/32x32",
    "yearBuilt": 1901,
    "bathrooms": 6,
    "propertyType": "Commercial Real Estate",
    "address": "944 Haring Street, Teasdale, American Samoa, 8786",
    "lastSaleDate": "2023-06-10",
    "latitude": -4.8951,
    "longitude": -14.792994,
    "rent": 245,
    "name": "Loretta"
  },
  {
    "id": "633965d5ac0606cf5f58c857",
    "city": "Machias",
    "state": "Nevada",
    "bedrooms": 8,
    "country": "Bosnia and Herzegovina",
    "squareFootage": 2905,
    "picture": "http://placehold.it/32x32",
    "yearBuilt": 1906,
    "bathrooms": 5,
    "propertyType": "Residential Area",
    "address": "894 Imlay Street, Fairforest, Tennessee, 4482",
    "lastSaleDate": "2023-07-31",
    "latitude": -29.401743,
    "longitude": 5.824022,
    "rent": 1305,
    "name": "Robinson"
  },
  {
    "id": "633965d5e482a2a2589eb1fa",
    "city": "Kapowsin",
    "state": "Indiana",
    "bedrooms": 5,
    "country": "Somalia",
    "squareFootage": 3022,
    "picture": "http://placehold.it/32x32",
    "yearBuilt": 1923,
    "bathrooms": 5,
    "propertyType": "Residential Area",
    "address": "863 Quentin Road, Nile, Illinois, 9985",
    "lastSaleDate": "2022-12-04",
    "latitude": -5.023959,
    "longitude": -38.154486,
    "rent": 1488,
    "name": "Mae"
  },
  {
    "id": "633965d596eec1245101dfa4",
    "city": "Loyalhanna",
    "state": "Arizona",
    "bedrooms": 5,
    "country": "Tajikistan",
    "squareFootage": 2426,
    "picture": "http://placehold.it/32x32",
    "yearBuilt": 1942,
    "bathrooms": 4,
    "propertyType": "Single Family Home",
    "address": "161 Miller Place, Sussex, Puerto Rico, 5630",
    "lastSaleDate": "2024-02-20",
    "latitude": 67.305825,
    "longitude": 90.583542,
    "rent": 364,
    "name": "Finch"
  },
  {
    "id": "633965d5d69cb562b1f7d828",
    "city": "Iola",
    "state": "Georgia",
    "bedrooms": 6,
    "country": "Cameroon",
    "squareFootage": 2197,
    "picture": "http://placehold.it/32x32",
    "yearBuilt": 1941,
    "bathrooms": 4,
    "propertyType": "Commercial Real Estate",
    "address": "925 Regent Place, Cotopaxi, New Hampshire, 3766",
    "lastSaleDate": "2024-12-18",
    "latitude": -54.807947,
    "longitude": -29.845235,
    "rent": 1470,
    "name": "Tania"
  },
  {
    "id": "633965d537b4a7ca57ad7871",
    "city": "Galesville",
    "state": "Utah",
    "bedrooms": 10,
    "country": "Egypt",
    "squareFootage": 2451,
    "picture": "http://placehold.it/32x32",
    "yearBuilt": 1905,
    "bathrooms": 2,
    "propertyType": "Commercial Real Estate",
    "address": "313 Kansas Place, Tonopah, Wyoming, 4280",
    "lastSaleDate": "2023-06-26",
    "latitude": 61.267596,
    "longitude": 90.860464,
    "rent": 111,
    "name": "Desiree"
  },
  {
    "id": "633965d576d0a055cd822728",
    "city": "Marbury",
    "state": "Virginia",
    "bedrooms": 8,
    "country": "French Southern Territories",
    "squareFootage": 1931,
    "picture": "http://placehold.it/32x32",
    "yearBuilt": 1958,
    "bathrooms": 6,
    "propertyType": "Residential Area",
    "address": "352 Folsom Place, Wright, Minnesota, 7248",
    "lastSaleDate": "2024-08-15",
    "latitude": -9.936317,
    "longitude": -124.297536,
    "rent": 352,
    "name": "Florine"
  },
  {
    "id": "633965d5559907f138dbc772",
    "city": "Hessville",
    "state": "Vermont",
    "bedrooms": 10,
    "country": "Saint Lucia",
    "squareFootage": 3062,
    "picture": "http://placehold.it/32x32",
    "yearBuilt": 1923,
    "bathrooms": 4,
    "propertyType": "Commercial Real Estate",
    "address": "136 Montrose Avenue, Hillsboro, Ohio, 2422",
    "lastSaleDate": "2024-05-08",
    "latitude": 0.01427,
    "longitude": -91.582117,
    "rent": 1,
    "name": "Nadia"
  },
  {
    "id": "633965d5020636214629e85d",
    "city": "Crayne",
    "state": "Wisconsin",
    "bedrooms": 7,
    "country": "Gabon",
    "squareFootage": 2177,
    "picture": "http://placehold.it/32x32",
    "yearBuilt": 1974,
    "bathrooms": 2,
    "propertyType": "Residential Area",
    "address": "999 Montauk Avenue, Cavalero, South Dakota, 7445",
    "lastSaleDate": "2022-10-27",
    "latitude": 31.253852,
    "longitude": -154.048589,
    "rent": 255,
    "name": "Melisa"
  },
  {
    "id": "633965d55582215ad360d19d",
    "city": "Stonybrook",
    "state": "Alaska",
    "bedrooms": 8,
    "country": "Libya",
    "squareFootage": 1277,
    "picture": "http://placehold.it/32x32",
    "yearBuilt": 1985,
    "bathrooms": 5,
    "propertyType": "Single Family Home",
    "address": "195 Euclid Avenue, Sunnyside, Virgin Islands, 8994",
    "lastSaleDate": "2023-07-16",
    "latitude": 16.365834,
    "longitude": -87.548095,
    "rent": 1291,
    "name": "Perry"
  },
  {
    "id": "633965d5acd25fadcc96e2c8",
    "city": "Saticoy",
    "state": "South Carolina",
    "bedrooms": 5,
    "country": "French Polynesia",
    "squareFootage": 2812,
    "picture": "http://placehold.it/32x32",
    "yearBuilt": 1998,
    "bathrooms": 2,
    "propertyType": "Apartment",
    "address": "290 Jefferson Street, Boomer, California, 6556",
    "lastSaleDate": "2023-08-26",
    "latitude": 52.282499,
    "longitude": 96.210125,
    "rent": 1155,
    "name": "Debra"
  },
  {
    "id": "633965d50987ee969efce2f6",
    "city": "Boonville",
    "state": "Colorado",
    "bedrooms": 2,
    "country": "Uruguay",
    "squareFootage": 2001,
    "picture": "http://placehold.it/32x32",
    "yearBuilt": 2017,
    "bathrooms": 4,
    "propertyType": "Apartment",
    "address": "178 Linden Street, Sardis, Connecticut, 1498",
    "lastSaleDate": "2024-01-07",
    "latitude": -40.65212,
    "longitude": -149.02836,
    "rent": 267,
    "name": "Nita"
  },
  {
    "id": "633965d5bb13b1dcbd99ca0f",
    "city": "Nipinnawasee",
    "state": "Montana",
    "bedrooms": 8,
    "country": "Puerto Rico",
    "squareFootage": 2296,
    "picture": "http://placehold.it/32x32",
    "yearBuilt": 1966,
    "bathrooms": 4,
    "propertyType": "Commercial Real Estate",
    "address": "241 Karweg Place, Carrizo, Maine, 6727",
    "lastSaleDate": "2022-11-12",
    "latitude": 64.642042,
    "longitude": 50.940361,
    "rent": 483,
    "name": "Randall"
  },
  {
    "id": "633965d57c95772a6a7d753b",
    "city": "Drytown",
    "state": "Kansas",
    "bedrooms": 3,
    "country": "Guam",
    "squareFootage": 3355,
    "picture": "http://placehold.it/32x32",
    "yearBuilt": 1905,
    "bathrooms": 6,
    "propertyType": "Personal Property",
    "address": "862 Irvington Place, Hanover, Michigan, 9224",
    "lastSaleDate": "2024-01-13",
    "latitude": -65.185483,
    "longitude": -174.7013,
    "rent": 939,
    "name": "Mclaughlin"
  },
  {
    "id": "633965d5afe4433d9e7ba730",
    "city": "Calpine",
    "state": "North Dakota",
    "bedrooms": 7,
    "country": "Oman",
    "squareFootage": 1543,
    "picture": "http://placehold.it/32x32",
    "yearBuilt": 2012,
    "bathrooms": 4,
    "propertyType": "Commercial Real Estate",
    "address": "476 Dictum Court, Lawrence, Missouri, 4680",
    "lastSaleDate": "2022-12-29",
    "latitude": 17.721053,
    "longitude": -88.098346,
    "rent": 343,
    "name": "Ilene"
  },
  {
    "id": "633965d58a381f1ac0ef0aab",
    "city": "Gila",
    "state": "Maryland",
    "bedrooms": 10,
    "country": "Kiribati",
    "squareFootage": 1599,
    "picture": "http://placehold.it/32x32",
    "yearBuilt": 1998,
    "bathrooms": 6,
    "propertyType": "Residential Area",
    "address": "827 Lyme Avenue, Toftrees, North Carolina, 2691",
    "lastSaleDate": "2023-09-09",
    "latitude": -1.138451,
    "longitude": -68.694277,
    "rent": 368,
    "name": "Anita"
  },
  {
    "id": "633965d5eb008f4910e186d1",
    "city": "Sehili",
    "state": "Arkansas",
    "bedrooms": 9,
    "country": "Angola",
    "squareFootage": 2533,
    "picture": "http://placehold.it/32x32",
    "yearBuilt": 2020,
    "bathrooms": 6,
    "propertyType": "Personal Property",
    "address": "700 Locust Street, Collins, Marshall Islands, 559",
    "lastSaleDate": "2024-03-08",
    "latitude": 23.970795,
    "longitude": -38.7546,
    "rent": 931,
    "name": "Bonnie"
  },
  {
    "id": "633965d5e0cb1479c7f71f70",
    "city": "Orason",
    "state": "Massachusetts",
    "bedrooms": 9,
    "country": "Jamaica",
    "squareFootage": 1814,
    "picture": "http://placehold.it/32x32",
    "yearBuilt": 1940,
    "bathrooms": 4,
    "propertyType": "Residential Area",
    "address": "475 Wyckoff Street, Bedias, West Virginia, 5701",
    "lastSaleDate": "2023-02-04",
    "latitude": 81.641084,
    "longitude": 128.058316,
    "rent": 979,
    "name": "Duncan"
  },
  {
    "id": "633965d5c81513613c3464df",
    "city": "Lafferty",
    "state": "Nebraska",
    "bedrooms": 3,
    "country": "Zimbabwe",
    "squareFootage": 2663,
    "picture": "http://placehold.it/32x32",
    "yearBuilt": 1979,
    "bathrooms": 4,
    "propertyType": "Residential Area",
    "address": "379 Plymouth Street, Somerset, New Mexico, 2607",
    "lastSaleDate": "2023-04-12",
    "latitude": -23.227305,
    "longitude": -172.132315,
    "rent": 1221,
    "name": "Battle"
  },
  {
    "id": "633965d5f759e9bc9ca51716",
    "city": "Lewis",
    "state": "New Jersey",
    "bedrooms": 10,
    "country": "Aruba",
    "squareFootage": 3262,
    "picture": "http://placehold.it/32x32",
    "yearBuilt": 1982,
    "bathrooms": 6,
    "propertyType": "Single Family Home",
    "address": "881 Ferry Place, Cedarville, Idaho, 4059",
    "lastSaleDate": "2024-02-25",
    "latitude": 88.786441,
    "longitude": 60.083061,
    "rent": 248,
    "name": "Campbell"
  },
  {
    "id": "633965d56cb8d79c80ee54e1",
    "city": "Walton",
    "state": "Louisiana",
    "bedrooms": 3,
    "country": "St. Helena",
    "squareFootage": 3921,
    "picture": "http://placehold.it/32x32",
    "yearBuilt": 1973,
    "bathrooms": 6,
    "propertyType": "Commercial Real Estate",
    "address": "529 Garland Court, Rehrersburg, Rhode Island, 6746",
    "lastSaleDate": "2024-10-22",
    "latitude": -29.419498,
    "longitude": -133.331254,
    "rent": 655,
    "name": "Raymond"
  },
  {
    "id": "633965d50923b90f434a7dda",
    "city": "Woodlake",
    "state": "Texas",
    "bedrooms": 2,
    "country": "Bahamas",
    "squareFootage": 1395,
    "picture": "http://placehold.it/32x32",
    "yearBuilt": 1911,
    "bathrooms": 4,
    "propertyType": "Apartment",
    "address": "954 Canal Avenue, Brenton, Alabama, 2505",
    "lastSaleDate": "2024-08-06",
    "latitude": 67.114131,
    "longitude": 47.887373,
    "rent": 422,
    "name": "Salinas"
  },
  {
    "id": "633965d532382b6aa3ad0027",
    "city": "Rockingham",
    "state": "Federated States Of Micronesia",
    "bedrooms": 2,
    "country": "Indonesia",
    "squareFootage": 2882,
    "picture": "http://placehold.it/32x32",
    "yearBuilt": 1954,
    "bathrooms": 4,
    "propertyType": "Residential Area",
    "address": "104 Hinckley Place, Ripley, Oklahoma, 4911",
    "lastSaleDate": "2024-07-08",
    "latitude": 62.724561,
    "longitude": -4.643551,
    "rent": 524,
    "name": "Patterson"
  },
  {
    "id": "633965d5fa238c213afe49a4",
    "city": "Falconaire",
    "state": "Northern Mariana Islands",
    "bedrooms": 7,
    "country": "Mongolia",
    "squareFootage": 1412,
    "picture": "http://placehold.it/32x32",
    "yearBuilt": 1967,
    "bathrooms": 6,
    "propertyType": "Apartment",
    "address": "374 Cox Place, Bladensburg, Washington, 1516",
    "lastSaleDate": "2023-12-25",
    "latitude": -12.312697,
    "longitude": -112.477993,
    "rent": 1290,
    "name": "Lydia"
  },
  {
    "id": "633965d5f59b7ac2578e3b16",
    "city": "Germanton",
    "state": "Delaware",
    "bedrooms": 5,
    "country": "Portugal",
    "squareFootage": 3147,
    "picture": "http://placehold.it/32x32",
    "yearBuilt": 1920,
    "bathrooms": 3,
    "propertyType": "Residential Area",
    "address": "365 Elm Place, Logan, Pennsylvania, 3720",
    "lastSaleDate": "2024-07-12",
    "latitude": 3.598753,
    "longitude": -128.261115,
    "rent": 580,
    "name": "Adkins"
  },
  {
    "id": "633965d5c32c31cef6137d81",
    "city": "Morgandale",
    "state": "Kentucky",
    "bedrooms": 8,
    "country": "American Samoa",
    "squareFootage": 1592,
    "picture": "http://placehold.it/32x32",
    "yearBuilt": 1948,
    "bathrooms": 6,
    "propertyType": "Apartment",
    "address": "303 Kenmore Terrace, Crumpler, District Of Columbia, 9488",
    "lastSaleDate": "2024-08-14",
    "latitude": 7.033968,
    "longitude": -5.031948,
    "rent": 866,
    "name": "Deirdre"
  },
  {
    "id": "633965d52a3dfb500cd6a65d",
    "city": "Chestnut",
    "state": "Mississippi",
    "bedrooms": 10,
    "country": "Pakistan",
    "squareFootage": 3760,
    "picture": "http://placehold.it/32x32",
    "yearBuilt": 1922,
    "bathrooms": 4,
    "propertyType": "Single Family Home",
    "address": "433 Macon Street, Shasta, Guam, 1819",
    "lastSaleDate": "2022-10-06",
    "latitude": -1.453794,
    "longitude": 124.865097,
    "rent": 40,
    "name": "Rhodes"
  },
  {
    "id": "633965d5fa05b67523374a7c",
    "city": "Wawona",
    "state": "Palau",
    "bedrooms": 3,
    "country": "Slovak Republic",
    "squareFootage": 3102,
    "picture": "http://placehold.it/32x32",
    "yearBuilt": 1954,
    "bathrooms": 2,
    "propertyType": "Personal Property",
    "address": "558 Frost Street, Kylertown, Oregon, 3717",
    "lastSaleDate": "2022-11-26",
    "latitude": -88.758561,
    "longitude": -69.554836,
    "rent": 1092,
    "name": "Candy"
  },
  {
    "id": "633965d52b4d90dab6920bce",
    "city": "Tilleda",
    "state": "Iowa",
    "bedrooms": 9,
    "country": "Haiti",
    "squareFootage": 1369,
    "picture": "http://placehold.it/32x32",
    "yearBuilt": 1922,
    "bathrooms": 4,
    "propertyType": "Residential Area",
    "address": "328 Brown Street, Robinson, Hawaii, 2576",
    "lastSaleDate": "2022-12-27",
    "latitude": -42.442116,
    "longitude": -132.346182,
    "rent": 744,
    "name": "Gross"
  },
  {
    "id": "633965d5df9dee9162031f15",
    "city": "Lumberton",
    "state": "Florida",
    "bedrooms": 8,
    "country": "Japan",
    "squareFootage": 3664,
    "picture": "http://placehold.it/32x32",
    "yearBuilt": 1944,
    "bathrooms": 3,
    "propertyType": "Multifamily Residential",
    "address": "636 Beard Street, Townsend, American Samoa, 5412",
    "lastSaleDate": "2024-04-04",
    "latitude": -71.791402,
    "longitude": -148.231161,
    "rent": 1089,
    "name": "Chrystal"
  },
  {
    "id": "633965d53b7a369e65a0a54d",
    "city": "Nadine",
    "state": "Nevada",
    "bedrooms": 6,
    "country": "Malaysia",
    "squareFootage": 2974,
    "picture": "http://placehold.it/32x32",
    "yearBuilt": 1957,
    "bathrooms": 6,
    "propertyType": "Personal Property",
    "address": "123 Cass Place, Chamizal, Tennessee, 9742",
    "lastSaleDate": "2024-11-03",
    "latitude": -63.407483,
    "longitude": -129.933977,
    "rent": 229,
    "name": "Castillo"
  },
  {
    "id": "633965d53f4c7c0889208aa6",
    "city": "Dawn",
    "state": "Indiana",
    "bedrooms": 4,
    "country": "Cook Islands",
    "squareFootage": 3653,
    "picture": "http://placehold.it/32x32",
    "yearBuilt": 1908,
    "bathrooms": 3,
    "propertyType": "Apartment",
    "address": "120 Morgan Avenue, National, Illinois, 2748",
    "lastSaleDate": "2024-06-13",
    "latitude": -22.440136,
    "longitude": -9.59193,
    "rent": 1113,
    "name": "Brenda"
  },
  {
    "id": "633965d525eed47ea005ffb7",
    "city": "Rutherford",
    "state": "Arizona",
    "bedrooms": 6,
    "country": "Lithuania",
    "squareFootage": 3239,
    "picture": "http://placehold.it/32x32",
    "yearBuilt": 1949,
    "bathrooms": 5,
    "propertyType": "Apartment",
    "address": "460 Hawthorne Street, Clarktown, Puerto Rico, 2021",
    "lastSaleDate": "2023-06-21",
    "latitude": -38.841667,
    "longitude": 167.105825,
    "rent": 1081,
    "name": "Tucker"
  },
  {
    "id": "633965d516557e97141fd49c",
    "city": "Bannock",
    "state": "Georgia",
    "bedrooms": 4,
    "country": "Macedonia",
    "squareFootage": 1366,
    "picture": "http://placehold.it/32x32",
    "yearBuilt": 1954,
    "bathrooms": 5,
    "propertyType": "Commercial Real Estate",
    "address": "539 Will Place, Sultana, New Hampshire, 490",
    "lastSaleDate": "2023-01-23",
    "latitude": -29.409039,
    "longitude": 68.13797,
    "rent": 1306,
    "name": "Patty"
  },
  {
    "id": "633965d5d3ce4ec2d09a0776",
    "city": "Morriston",
    "state": "Utah",
    "bedrooms": 2,
    "country": "Viet Nam",
    "squareFootage": 2304,
    "picture": "http://placehold.it/32x32",
    "yearBuilt": 1964,
    "bathrooms": 2,
    "propertyType": "Condominium",
    "address": "934 Ainslie Street, Beyerville, Wyoming, 696",
    "lastSaleDate": "2023-11-23",
    "latitude": -73.838413,
    "longitude": 139.904257,
    "rent": 975,
    "name": "Ollie"
  },
  {
    "id": "633965d5a75baa57bb9fda64",
    "city": "Glenville",
    "state": "Virginia",
    "bedrooms": 3,
    "country": "Hong Kong",
    "squareFootage": 1701,
    "picture": "http://placehold.it/32x32",
    "yearBuilt": 1904,
    "bathrooms": 2,
    "propertyType": "Residential Area",
    "address": "153 Monaco Place, Gwynn, Minnesota, 2503",
    "lastSaleDate": "2023-05-31",
    "latitude": -61.24549,
    "longitude": -108.915226,
    "rent": 1263,
    "name": "Byers"
  },
  {
    "id": "633965d5cc32a097d6564f7e",
    "city": "Snowville",
    "state": "Vermont",
    "bedrooms": 3,
    "country": "Netherlands",
    "squareFootage": 3977,
    "picture": "http://placehold.it/32x32",
    "yearBuilt": 1916,
    "bathrooms": 3,
    "propertyType": "Apartment",
    "address": "329 Arlington Place, Clay, Ohio, 6324",
    "lastSaleDate": "2024-01-06",
    "latitude": -66.333368,
    "longitude": 32.627988,
    "rent": 793,
    "name": "Schroeder"
  },
  {
    "id": "633965d565062f12b82eb965",
    "city": "Movico",
    "state": "Wisconsin",
    "bedrooms": 9,
    "country": "Niger",
    "squareFootage": 2438,
    "picture": "http://placehold.it/32x32",
    "yearBuilt": 1905,
    "bathrooms": 4,
    "propertyType": "Single Family Home",
    "address": "497 Fair Street, Caroleen, South Dakota, 7580",
    "lastSaleDate": "2022-11-24",
    "latitude": 35.357252,
    "longitude": -73.015012,
    "rent": 264,
    "name": "Vicki"
  },
  {
    "id": "633965d5db26102068ccd92f",
    "city": "Lopezo",
    "state": "Alaska",
    "bedrooms": 8,
    "country": "Estonia",
    "squareFootage": 2749,
    "picture": "http://placehold.it/32x32",
    "yearBuilt": 1935,
    "bathrooms": 3,
    "propertyType": "Multifamily Residential",
    "address": "762 Court Square, Crenshaw, Virgin Islands, 6452",
    "lastSaleDate": "2024-10-04",
    "latitude": -11.028017,
    "longitude": 82.319534,
    "rent": 1175,
    "name": "Hinton"
  },
  {
    "id": "633965d56db015b19415c668",
    "city": "Hegins",
    "state": "South Carolina",
    "bedrooms": 10,
    "country": "Nigeria",
    "squareFootage": 1164,
    "picture": "http://placehold.it/32x32",
    "yearBuilt": 1991,
    "bathrooms": 5,
    "propertyType": "Residential Area",
    "address": "962 Otsego Street, Echo, California, 6239",
    "lastSaleDate": "2024-04-20",
    "latitude": 88.128223,
    "longitude": 150.949602,
    "rent": 1284,
    "name": "Potter"
  },
  {
    "id": "633965d5bcd8388e32e58409",
    "city": "Clayville",
    "state": "Colorado",
    "bedrooms": 10,
    "country": "Malawi",
    "squareFootage": 3440,
    "picture": "http://placehold.it/32x32",
    "yearBuilt": 1969,
    "bathrooms": 4,
    "propertyType": "Apartment",
    "address": "718 Newton Street, Norvelt, Connecticut, 9851",
    "lastSaleDate": "2023-05-28",
    "latitude": -71.152705,
    "longitude": 2.444793,
    "rent": 819,
    "name": "Whitley"
  },
  {
    "id": "633965d5f20411e8d84999d5",
    "city": "Wildwood",
    "state": "Montana",
    "bedrooms": 8,
    "country": "Yemen",
    "squareFootage": 2240,
    "picture": "http://placehold.it/32x32",
    "yearBuilt": 2004,
    "bathrooms": 4,
    "propertyType": "Multifamily Residential",
    "address": "329 Seaview Court, Lavalette, Maine, 3900",
    "lastSaleDate": "2023-03-08",
    "latitude": 12.094204,
    "longitude": -108.093257,
    "rent": 126,
    "name": "Jessica"
  },
  {
    "id": "633965d511ba04e31dc3f0d2",
    "city": "Frank",
    "state": "Kansas",
    "bedrooms": 5,
    "country": "Malta",
    "squareFootage": 3075,
    "picture": "http://placehold.it/32x32",
    "yearBuilt": 1936,
    "bathrooms": 2,
    "propertyType": "Multifamily Residential",
    "address": "770 Melba Court, Tioga, Michigan, 6516",
    "lastSaleDate": "2023-02-14",
    "latitude": -16.315258,
    "longitude": -121.73897,
    "rent": 685,
    "name": "Lowery"
  },
  {
    "id": "633965d5c01d228fd0c877d5",
    "city": "Bellamy",
    "state": "North Dakota",
    "bedrooms": 8,
    "country": "Pitcairn",
    "squareFootage": 2355,
    "picture": "http://placehold.it/32x32",
    "yearBuilt": 1968,
    "bathrooms": 3,
    "propertyType": "Residential Area",
    "address": "107 Hamilton Walk, Greenbackville, Missouri, 8043",
    "lastSaleDate": "2024-03-09",
    "latitude": 76.822318,
    "longitude": 117.279171,
    "rent": 1200,
    "name": "Bridget"
  },
  {
    "id": "633965d55c8bbed8aef2a6bc",
    "city": "Bakersville",
    "state": "Maryland",
    "bedrooms": 10,
    "country": "Kazakhstan",
    "squareFootage": 2335,
    "picture": "http://placehold.it/32x32",
    "yearBuilt": 1953,
    "bathrooms": 5,
    "propertyType": "Single Family Home",
    "address": "552 Bergen Court, Harrodsburg, North Carolina, 310",
    "lastSaleDate": "2024-09-28",
    "latitude": 49.700113,
    "longitude": -36.394734,
    "rent": 603,
    "name": "Warren"
  },
  {
    "id": "633965d578c7935b9f5c547d",
    "city": "Sunriver",
    "state": "Arkansas",
    "bedrooms": 2,
    "country": "Turks and Caicos Islands",
    "squareFootage": 2057,
    "picture": "http://placehold.it/32x32",
    "yearBuilt": 1945,
    "bathrooms": 3,
    "propertyType": "Condominium",
    "address": "249 Kiely Place, Bendon, Marshall Islands, 3821",
    "lastSaleDate": "2022-11-11",
    "latitude": 83.978476,
    "longitude": -64.397708,
    "rent": 264,
    "name": "Dunlap"
  },
  {
    "id": "633965d5b0bec11ee8250720",
    "city": "Dunnavant",
    "state": "Massachusetts",
    "bedrooms": 8,
    "country": "Austria",
    "squareFootage": 3608,
    "picture": "http://placehold.it/32x32",
    "yearBuilt": 1900,
    "bathrooms": 6,
    "propertyType": "Apartment",
    "address": "229 Java Street, Fillmore, West Virginia, 6330",
    "lastSaleDate": "2022-12-19",
    "latitude": 74.992383,
    "longitude": 141.06892,
    "rent": 1122,
    "name": "Rhonda"
  },
  {
    "id": "633965d5c0f09f4d92adb677",
    "city": "Tolu",
    "state": "Nebraska",
    "bedrooms": 7,
    "country": "Guyana",
    "squareFootage": 3722,
    "picture": "http://placehold.it/32x32",
    "yearBuilt": 2002,
    "bathrooms": 4,
    "propertyType": "Condominium",
    "address": "739 Oceanic Avenue, Alafaya, New Mexico, 8739",
    "lastSaleDate": "2024-05-16",
    "latitude": -69.200426,
    "longitude": -25.076947,
    "rent": 716,
    "name": "Christi"
  },
  {
    "id": "633965d53d72ab6dd6723b25",
    "city": "Caron",
    "state": "New Jersey",
    "bedrooms": 2,
    "country": "Tanzania",
    "squareFootage": 3065,
    "picture": "http://placehold.it/32x32",
    "yearBuilt": 1994,
    "bathrooms": 5,
    "propertyType": "Commercial Real Estate",
    "address": "233 Boynton Place, Wiscon, Idaho, 3802",
    "lastSaleDate": "2023-10-30",
    "latitude": -87.848759,
    "longitude": -26.953837,
    "rent": 871,
    "name": "Best"
  },
  {
    "id": "633965d59c8238b1d1ee16df",
    "city": "Blandburg",
    "state": "Louisiana",
    "bedrooms": 7,
    "country": "South Africa",
    "squareFootage": 2401,
    "picture": "http://placehold.it/32x32",
    "yearBuilt": 1994,
    "bathrooms": 5,
    "propertyType": "Residential Area",
    "address": "266 Dorchester Road, Nettie, Rhode Island, 6455",
    "lastSaleDate": "2023-06-23",
    "latitude": 42.765919,
    "longitude": -41.964317,
    "rent": 570,
    "name": "Gonzales"
  },
  {
    "id": "633965d55c35c32578adc52e",
    "city": "Martell",
    "state": "Texas",
    "bedrooms": 7,
    "country": "British Indian Ocean Territory",
    "squareFootage": 1291,
    "picture": "http://placehold.it/32x32",
    "yearBuilt": 1974,
    "bathrooms": 4,
    "propertyType": "Residential Area",
    "address": "180 Moffat Street, Bagtown, Alabama, 4116",
    "lastSaleDate": "2024-05-25",
    "latitude": 49.687838,
    "longitude": 11.874974,
    "rent": 487,
    "name": "Everett"
  },
  {
    "id": "633965d5a73bd08b86af91f6",
    "city": "Edgar",
    "state": "Federated States Of Micronesia",
    "bedrooms": 7,
    "country": "Finland",
    "squareFootage": 1981,
    "picture": "http://placehold.it/32x32",
    "yearBuilt": 1931,
    "bathrooms": 5,
    "propertyType": "Condominium",
    "address": "535 Manhattan Avenue, Advance, Oklahoma, 2344",
    "lastSaleDate": "2023-04-19",
    "latitude": -6.860524,
    "longitude": -35.443304,
    "rent": 1237,
    "name": "Dianne"
  },
  {
    "id": "633965d5d5135cefa3c59012",
    "city": "Dexter",
    "state": "Northern Mariana Islands",
    "bedrooms": 2,
    "country": "Falkland Islands (Malvinas)",
    "squareFootage": 2285,
    "picture": "http://placehold.it/32x32",
    "yearBuilt": 1914,
    "bathrooms": 6,
    "propertyType": "Condominium",
    "address": "944 Sandford Street, Bradenville, Washington, 4539",
    "lastSaleDate": "2023-07-17",
    "latitude": -51.642564,
    "longitude": 165.094111,
    "rent": 986,
    "name": "Wilma"
  },
  {
    "id": "633965d5955ba512788eca28",
    "city": "Faxon",
    "state": "Delaware",
    "bedrooms": 3,
    "country": "Saint Kitts and Nevis",
    "squareFootage": 2910,
    "picture": "http://placehold.it/32x32",
    "yearBuilt": 1942,
    "bathrooms": 4,
    "propertyType": "Personal Property",
    "address": "353 Wilson Street, Brandermill, Pennsylvania, 5007",
    "lastSaleDate": "2024-03-26",
    "latitude": 18.800382,
    "longitude": -135.818647,
    "rent": 628,
    "name": "Mills"
  },
  {
    "id": "633965d57b4ad634bec57932",
    "city": "Turah",
    "state": "Kentucky",
    "bedrooms": 6,
    "country": "Uzbekistan",
    "squareFootage": 1790,
    "picture": "http://placehold.it/32x32",
    "yearBuilt": 1999,
    "bathrooms": 6,
    "propertyType": "Single Family Home",
    "address": "104 Aitken Place, Jenkinsville, District Of Columbia, 4127",
    "lastSaleDate": "2024-06-23",
    "latitude": 16.809645,
    "longitude": 179.775453,
    "rent": 314,
    "name": "Mason"
  },
  {
    "id": "633965d530770535cfa35a1e",
    "city": "Tyro",
    "state": "Mississippi",
    "bedrooms": 8,
    "country": "Kyrgyzstan",
    "squareFootage": 1736,
    "picture": "http://placehold.it/32x32",
    "yearBuilt": 1984,
    "bathrooms": 5,
    "propertyType": "Commercial Real Estate",
    "address": "881 Essex Street, Condon, Guam, 1418",
    "lastSaleDate": "2024-02-06",
    "latitude": -75.624548,
    "longitude": -89.06291,
    "rent": 1449,
    "name": "Conley"
  },
  {
    "id": "633965d5eca3b1f6546292bf",
    "city": "Mansfield",
    "state": "Palau",
    "bedrooms": 4,
    "country": "Kenya",
    "squareFootage": 2027,
    "picture": "http://placehold.it/32x32",
    "yearBuilt": 1917,
    "bathrooms": 5,
    "propertyType": "Multifamily Residential",
    "address": "727 Poplar Avenue, Roulette, Oregon, 8443",
    "lastSaleDate": "2023-03-30",
    "latitude": -61.193596,
    "longitude": -64.847004,
    "rent": 1206,
    "name": "Gibson"
  },
  {
    "id": "633965d5e3c976aa82881199",
    "city": "Carlos",
    "state": "Iowa",
    "bedrooms": 3,
    "country": "Botswana",
    "squareFootage": 3964,
    "picture": "http://placehold.it/32x32",
    "yearBuilt": 1957,
    "bathrooms": 6,
    "propertyType": "Residential Area",
    "address": "583 Atkins Avenue, Moquino, Hawaii, 2294",
    "lastSaleDate": "2023-09-20",
    "latitude": -74.064284,
    "longitude": -112.787562,
    "rent": 177,
    "name": "Norton"
  },
  {
    "id": "633965d5543415fa3d30facf",
    "city": "Grimsley",
    "state": "Florida",
    "bedrooms": 5,
    "country": "Bhutan",
    "squareFootage": 1818,
    "picture": "http://placehold.it/32x32",
    "yearBuilt": 1977,
    "bathrooms": 3,
    "propertyType": "Condominium",
    "address": "823 Rock Street, Bowden, American Samoa, 5193",
    "lastSaleDate": "2024-03-19",
    "latitude": -19.003232,
    "longitude": 136.809017,
    "rent": 1287,
    "name": "Warner"
  },
  {
    "id": "633965d55cee36b097925d87",
    "city": "Rossmore",
    "state": "Nevada",
    "bedrooms": 7,
    "country": "US Minor Outlying Islands",
    "squareFootage": 3759,
    "picture": "http://placehold.it/32x32",
    "yearBuilt": 1932,
    "bathrooms": 5,
    "propertyType": "Residential Area",
    "address": "850 Jay Street, Volta, Tennessee, 865",
    "lastSaleDate": "2024-07-14",
    "latitude": 69.932211,
    "longitude": 126.199054,
    "rent": 678,
    "name": "Chang"
  },
  {
    "id": "633965d51eda450fd36a6e10",
    "city": "Loveland",
    "state": "Indiana",
    "bedrooms": 7,
    "country": "Korea (South)",
    "squareFootage": 2557,
    "picture": "http://placehold.it/32x32",
    "yearBuilt": 1964,
    "bathrooms": 4,
    "propertyType": "Apartment",
    "address": "407 Gilmore Court, Breinigsville, Illinois, 1909",
    "lastSaleDate": "2024-10-31",
    "latitude": 66.133878,
    "longitude": -155.662232,
    "rent": 783,
    "name": "Stacy"
  },
  {
    "id": "633965d55cdd0e696e68668b",
    "city": "Bethpage",
    "state": "Arizona",
    "bedrooms": 6,
    "country": "Spain",
    "squareFootage": 2501,
    "picture": "http://placehold.it/32x32",
    "yearBuilt": 2009,
    "bathrooms": 2,
    "propertyType": "Condominium",
    "address": "781 Holmes Lane, Rosine, Puerto Rico, 5769",
    "lastSaleDate": "2023-07-03",
    "latitude": -80.092784,
    "longitude": -24.466888,
    "rent": 1340,
    "name": "Jimmie"
  },
  {
    "id": "633965d5b9d9559c586d997b",
    "city": "Belleview",
    "state": "Georgia",
    "bedrooms": 5,
    "country": "Panama",
    "squareFootage": 3458,
    "picture": "http://placehold.it/32x32",
    "yearBuilt": 1978,
    "bathrooms": 4,
    "propertyType": "Condominium",
    "address": "727 Devon Avenue, Nanafalia, New Hampshire, 3432",
    "lastSaleDate": "2023-02-27",
    "latitude": -51.844799,
    "longitude": -53.796648,
    "rent": 492,
    "name": "Corine"
  },
  {
    "id": "633965d5b564e454eb559b1f",
    "city": "Cashtown",
    "state": "Utah",
    "bedrooms": 5,
    "country": "Croatia (Hrvatska)",
    "squareFootage": 3481,
    "picture": "http://placehold.it/32x32",
    "yearBuilt": 1913,
    "bathrooms": 5,
    "propertyType": "Commercial Real Estate",
    "address": "288 Engert Avenue, Bainbridge, Wyoming, 5759",
    "lastSaleDate": "2023-01-30",
    "latitude": 12.873898,
    "longitude": -44.660891,
    "rent": 1448,
    "name": "Cardenas"
  },
  {
    "id": "633965d502d8693d41595c14",
    "city": "Edenburg",
    "state": "Virginia",
    "bedrooms": 3,
    "country": "Guinea",
    "squareFootage": 1995,
    "picture": "http://placehold.it/32x32",
    "yearBuilt": 1949,
    "bathrooms": 6,
    "propertyType": "Residential Area",
    "address": "497 Dakota Place, Rockhill, Minnesota, 2375",
    "lastSaleDate": "2023-07-02",
    "latitude": 68.838671,
    "longitude": 166.321904,
    "rent": 506,
    "name": "Beck"
  },
  {
    "id": "633965d5154a948d2ee61953",
    "city": "Camino",
    "state": "Vermont",
    "bedrooms": 3,
    "country": "Honduras",
    "squareFootage": 1269,
    "picture": "http://placehold.it/32x32",
    "yearBuilt": 1923,
    "bathrooms": 6,
    "propertyType": "Apartment",
    "address": "885 Vandalia Avenue, Chase, Ohio, 5484",
    "lastSaleDate": "2024-01-13",
    "latitude": 57.341912,
    "longitude": -93.786358,
    "rent": 1325,
    "name": "Judy"
  },
  {
    "id": "633965d58e57ca1383ed7569",
    "city": "Brecon",
    "state": "Wisconsin",
    "bedrooms": 10,
    "country": "Bermuda",
    "squareFootage": 1893,
    "picture": "http://placehold.it/32x32",
    "yearBuilt": 1941,
    "bathrooms": 4,
    "propertyType": "Condominium",
    "address": "983 Pershing Loop, Deputy, South Dakota, 1993",
    "lastSaleDate": "2024-10-20",
    "latitude": -42.181608,
    "longitude": -76.563082,
    "rent": 154,
    "name": "Schwartz"
  },
  {
    "id": "633965d516b99c5ee4fad7ae",
    "city": "Dalton",
    "state": "Alaska",
    "bedrooms": 9,
    "country": "Cyprus",
    "squareFootage": 3118,
    "picture": "http://placehold.it/32x32",
    "yearBuilt": 1905,
    "bathrooms": 4,
    "propertyType": "Single Family Home",
    "address": "925 Summit Street, Tryon, Virgin Islands, 3046",
    "lastSaleDate": "2022-11-02",
    "latitude": 85.65443,
    "longitude": 120.694734,
    "rent": 944,
    "name": "Mitzi"
  },
  {
    "id": "633965d59806d1cda5d3bc46",
    "city": "Stewart",
    "state": "South Carolina",
    "bedrooms": 10,
    "country": "Bolivia",
    "squareFootage": 2791,
    "picture": "http://placehold.it/32x32",
    "yearBuilt": 1957,
    "bathrooms": 5,
    "propertyType": "Personal Property",
    "address": "202 Whitty Lane, Hachita, California, 2219",
    "lastSaleDate": "2022-11-15",
    "latitude": 18.322162,
    "longitude": -140.528333,
    "rent": 318,
    "name": "Emma"
  },
  {
    "id": "633965d5007b16bfcc5466a1",
    "city": "Sylvanite",
    "state": "Colorado",
    "bedrooms": 4,
    "country": "Zambia",
    "squareFootage": 1801,
    "picture": "http://placehold.it/32x32",
    "yearBuilt": 1924,
    "bathrooms": 2,
    "propertyType": "Residential Area",
    "address": "101 Tapscott Avenue, Verdi, Connecticut, 6809",
    "lastSaleDate": "2024-08-17",
    "latitude": -69.828472,
    "longitude": -156.264303,
    "rent": 957,
    "name": "Yolanda"
  },
  {
    "id": "633965d56d050a1a6cbec1a7",
    "city": "Sandston",
    "state": "Montana",
    "bedrooms": 5,
    "country": "Trinidad and Tobago",
    "squareFootage": 2834,
    "picture": "http://placehold.it/32x32",
    "yearBuilt": 1908,
    "bathrooms": 2,
    "propertyType": "Condominium",
    "address": "697 Pitkin Avenue, Bowie, Maine, 1470",
    "lastSaleDate": "2023-11-19",
    "latitude": 18.231816,
    "longitude": -26.214519,
    "rent": 504,
    "name": "Cochran"
  },
  {
    "id": "633965d51e3c65cc062bb189",
    "city": "Witmer",
    "state": "Kansas",
    "bedrooms": 2,
    "country": "Korea (North)",
    "squareFootage": 1471,
    "picture": "http://placehold.it/32x32",
    "yearBuilt": 1962,
    "bathrooms": 2,
    "propertyType": "Condominium",
    "address": "566 Debevoise Avenue, Ilchester, Michigan, 3770",
    "lastSaleDate": "2024-05-10",
    "latitude": 40.147934,
    "longitude": -100.915209,
    "rent": 327,
    "name": "Conner"
  },
  {
    "id": "633965d5a303e59d7c65b270",
    "city": "Kieler",
    "state": "North Dakota",
    "bedrooms": 7,
    "country": "Poland",
    "squareFootage": 3396,
    "picture": "http://placehold.it/32x32",
    "yearBuilt": 1995,
    "bathrooms": 4,
    "propertyType": "Multifamily Residential",
    "address": "569 Truxton Street, Mayfair, Missouri, 8562",
    "lastSaleDate": "2024-03-22",
    "latitude": 58.817533,
    "longitude": -118.396511,
    "rent": 888,
    "name": "Gregory"
  },
  {
    "id": "633965d52f5a248a9905007f",
    "city": "Thynedale",
    "state": "Maryland",
    "bedrooms": 3,
    "country": "Wallis and Futuna Islands",
    "squareFootage": 3576,
    "picture": "http://placehold.it/32x32",
    "yearBuilt": 2018,
    "bathrooms": 6,
    "propertyType": "Condominium",
    "address": "224 Homecrest Court, Veyo, North Carolina, 1622",
    "lastSaleDate": "2024-01-31",
    "latitude": 17.254074,
    "longitude": -8.183379,
    "rent": 116,
    "name": "Stevens"
  },
  {
    "id": "633965d5a64602267b3bee55",
    "city": "Driftwood",
    "state": "Arkansas",
    "bedrooms": 6,
    "country": "Singapore",
    "squareFootage": 3353,
    "picture": "http://placehold.it/32x32",
    "yearBuilt": 1980,
    "bathrooms": 5,
    "propertyType": "Condominium",
    "address": "674 Georgia Avenue, Fostoria, Marshall Islands, 7966",
    "lastSaleDate": "2024-11-30",
    "latitude": -6.24025,
    "longitude": 109.702577,
    "rent": 477,
    "name": "Ayala"
  },
  {
    "id": "633965d555fed6b31708ee06",
    "city": "Castleton",
    "state": "Massachusetts",
    "bedrooms": 7,
    "country": "Gambia",
    "squareFootage": 2551,
    "picture": "http://placehold.it/32x32",
    "yearBuilt": 2002,
    "bathrooms": 5,
    "propertyType": "Single Family Home",
    "address": "713 Harman Street, Gambrills, West Virginia, 3923",
    "lastSaleDate": "2022-12-18",
    "latitude": -49.009596,
    "longitude": 143.587307,
    "rent": 684,
    "name": "Rowland"
  },
  {
    "id": "633965d5668f710bd1b50d44",
    "city": "Canby",
    "state": "Nebraska",
    "bedrooms": 5,
    "country": "Georgia",
    "squareFootage": 1894,
    "picture": "http://placehold.it/32x32",
    "yearBuilt": 1981,
    "bathrooms": 4,
    "propertyType": "Apartment",
    "address": "159 Dikeman Street, Balm, New Mexico, 6533",
    "lastSaleDate": "2023-06-25",
    "latitude": 56.708597,
    "longitude": -18.106888,
    "rent": 1133,
    "name": "Selma"
  },
  {
    "id": "633965d5e3c6b9ad6e170eb6",
    "city": "Woodruff",
    "state": "New Jersey",
    "bedrooms": 7,
    "country": "Mauritius",
    "squareFootage": 3523,
    "picture": "http://placehold.it/32x32",
    "yearBuilt": 1996,
    "bathrooms": 2,
    "propertyType": "Apartment",
    "address": "492 Harrison Place, Vincent, Idaho, 4171",
    "lastSaleDate": "2024-04-01",
    "latitude": 47.264428,
    "longitude": -135.010539,
    "rent": 285,
    "name": "Kane"
  },
  {
    "id": "633965d57376a72f5ca0c9cf",
    "city": "Wheatfields",
    "state": "Louisiana",
    "bedrooms": 2,
    "country": "Luxembourg",
    "squareFootage": 2121,
    "picture": "http://placehold.it/32x32",
    "yearBuilt": 1971,
    "bathrooms": 6,
    "propertyType": "Apartment",
    "address": "577 Hanover Place, Lynn, Rhode Island, 433",
    "lastSaleDate": "2024-03-30",
    "latitude": -0.862838,
    "longitude": 70.71369,
    "rent": 702,
    "name": "Blake"
  },
  {
    "id": "633965d5044ccc0919282e75",
    "city": "Esmont",
    "state": "Texas",
    "bedrooms": 10,
    "country": "Antarctica",
    "squareFootage": 3807,
    "picture": "http://placehold.it/32x32",
    "yearBuilt": 2005,
    "bathrooms": 6,
    "propertyType": "Personal Property",
    "address": "440 Clarkson Avenue, Eureka, Alabama, 7960",
    "lastSaleDate": "2024-03-06",
    "latitude": -14.467772,
    "longitude": 145.089363,
    "rent": 1317,
    "name": "Glenn"
  },
  {
    "id": "633965d52388eab2681fafc2",
    "city": "Nogal",
    "state": "Federated States Of Micronesia",
    "bedrooms": 10,
    "country": "Martinique",
    "squareFootage": 2801,
    "picture": "http://placehold.it/32x32",
    "yearBuilt": 1992,
    "bathrooms": 4,
    "propertyType": "Condominium",
    "address": "366 Clara Street, Spelter, Oklahoma, 754",
    "lastSaleDate": "2024-03-29",
    "latitude": 82.349145,
    "longitude": 175.943412,
    "rent": 50,
    "name": "Boyle"
  },
  {
    "id": "633965d52990263bdbec7185",
    "city": "Sabillasville",
    "state": "Northern Mariana Islands",
    "bedrooms": 5,
    "country": "Dominican Republic",
    "squareFootage": 2185,
    "picture": "http://placehold.it/32x32",
    "yearBuilt": 1954,
    "bathrooms": 4,
    "propertyType": "Apartment",
    "address": "162 Cadman Plaza, Lowgap, Washington, 2329",
    "lastSaleDate": "2024-12-24",
    "latitude": 77.343668,
    "longitude": -86.578089,
    "rent": 789,
    "name": "Sarah"
  },
  {
    "id": "633965d54b527ed8ddea5fd9",
    "city": "Edneyville",
    "state": "Delaware",
    "bedrooms": 4,
    "country": "Russian Federation",
    "squareFootage": 3557,
    "picture": "http://placehold.it/32x32",
    "yearBuilt": 1991,
    "bathrooms": 6,
    "propertyType": "Personal Property",
    "address": "186 Congress Street, Bloomington, Pennsylvania, 2309",
    "lastSaleDate": "2024-09-02",
    "latitude": -76.558209,
    "longitude": -179.536568,
    "rent": 237,
    "name": "Bird"
  },
  {
    "id": "633965d581b21bef968db06e",
    "city": "Como",
    "state": "Kentucky",
    "bedrooms": 7,
    "country": "Netherlands Antilles",
    "squareFootage": 3010,
    "picture": "http://placehold.it/32x32",
    "yearBuilt": 1901,
    "bathrooms": 2,
    "propertyType": "Single Family Home",
    "address": "764 Clinton Street, Homeland, District Of Columbia, 8979",
    "lastSaleDate": "2024-09-17",
    "latitude": -55.071695,
    "longitude": 6.505941,
    "rent": 170,
    "name": "Ester"
  },
  {
    "id": "633965d51b81daa17ac7de7c",
    "city": "Floriston",
    "state": "Mississippi",
    "bedrooms": 4,
    "country": "Turkmenistan",
    "squareFootage": 1039,
    "picture": "http://placehold.it/32x32",
    "yearBuilt": 1969,
    "bathrooms": 3,
    "propertyType": "Multifamily Residential",
    "address": "311 Gunnison Court, Vaughn, Guam, 1303",
    "lastSaleDate": "2023-05-27",
    "latitude": 65.859337,
    "longitude": 128.225612,
    "rent": 379,
    "name": "Olsen"
  },
  {
    "id": "633965d55583093a20dacb61",
    "city": "Neibert",
    "state": "Palau",
    "bedrooms": 4,
    "country": "Slovenia",
    "squareFootage": 3210,
    "picture": "http://placehold.it/32x32",
    "yearBuilt": 2003,
    "bathrooms": 4,
    "propertyType": "Multifamily Residential",
    "address": "619 Classon Avenue, Greenwich, Oregon, 2692",
    "lastSaleDate": "2023-05-17",
    "latitude": 37.074109,
    "longitude": -41.281534,
    "rent": 1262,
    "name": "Kerri"
  },
  {
    "id": "633965d5146cc6bf5b229749",
    "city": "Marne",
    "state": "Iowa",
    "bedrooms": 2,
    "country": "Congo",
    "squareFootage": 2081,
    "picture": "http://placehold.it/32x32",
    "yearBuilt": 1902,
    "bathrooms": 5,
    "propertyType": "Commercial Real Estate",
    "address": "723 Merit Court, Whitestone, Hawaii, 1615",
    "lastSaleDate": "2024-11-09",
    "latitude": -70.375698,
    "longitude": -137.018743,
    "rent": 1155,
    "name": "Carla"
  },
  {
    "id": "633965d51621dee284fbaae7",
    "city": "Dargan",
    "state": "Florida",
    "bedrooms": 6,
    "country": "Sri Lanka",
    "squareFootage": 1536,
    "picture": "http://placehold.it/32x32",
    "yearBuilt": 1983,
    "bathrooms": 5,
    "propertyType": "Apartment",
    "address": "503 Sunnyside Avenue, Eagleville, American Samoa, 2557",
    "lastSaleDate": "2024-03-24",
    "latitude": -7.128305,
    "longitude": 25.33002,
    "rent": 92,
    "name": "Amelia"
  },
  {
    "id": "633965d54c9fa1b9266e7db9",
    "city": "Williamson",
    "state": "Nevada",
    "bedrooms": 5,
    "country": "Liechtenstein",
    "squareFootage": 2583,
    "picture": "http://placehold.it/32x32",
    "yearBuilt": 1984,
    "bathrooms": 4,
    "propertyType": "Multifamily Residential",
    "address": "366 Doughty Street, Stewartville, Tennessee, 1260",
    "lastSaleDate": "2023-11-07",
    "latitude": -16.445331,
    "longitude": 100.859763,
    "rent": 980,
    "name": "Lawson"
  },
  {
    "id": "633965d53977461ca95cdd66",
    "city": "Sharon",
    "state": "Indiana",
    "bedrooms": 4,
    "country": "Albania",
    "squareFootage": 3321,
    "picture": "http://placehold.it/32x32",
    "yearBuilt": 1908,
    "bathrooms": 6,
    "propertyType": "Single Family Home",
    "address": "959 Monitor Street, Walker, Illinois, 8839",
    "lastSaleDate": "2022-12-22",
    "latitude": -62.685568,
    "longitude": -19.279577,
    "rent": 1435,
    "name": "Leslie"
  },
  {
    "id": "633965d5678cc4ba7205e8f1",
    "city": "Coloma",
    "state": "Arizona",
    "bedrooms": 5,
    "country": "China",
    "squareFootage": 2030,
    "picture": "http://placehold.it/32x32",
    "yearBuilt": 2010,
    "bathrooms": 6,
    "propertyType": "Single Family Home",
    "address": "800 Ridgewood Avenue, Harrison, Puerto Rico, 851",
    "lastSaleDate": "2023-06-15",
    "latitude": 65.23363,
    "longitude": -137.475463,
    "rent": 774,
    "name": "Janelle"
  },
  {
    "id": "633965d58dc098d2f03efd06",
    "city": "Fingerville",
    "state": "Georgia",
    "bedrooms": 4,
    "country": "Cayman Islands",
    "squareFootage": 2366,
    "picture": "http://placehold.it/32x32",
    "yearBuilt": 1910,
    "bathrooms": 2,
    "propertyType": "Condominium",
    "address": "368 Belmont Avenue, Loretto, New Hampshire, 8828",
    "lastSaleDate": "2023-12-24",
    "latitude": 1.161201,
    "longitude": 15.024169,
    "rent": 1239,
    "name": "Berta"
  },
  {
    "id": "633965d53ed78e99cd0b271d",
    "city": "Callaghan",
    "state": "Utah",
    "bedrooms": 6,
    "country": "Tonga",
    "squareFootage": 1253,
    "picture": "http://placehold.it/32x32",
    "yearBuilt": 1983,
    "bathrooms": 6,
    "propertyType": "Multifamily Residential",
    "address": "203 Hart Place, Wakarusa, Wyoming, 9126",
    "lastSaleDate": "2022-12-16",
    "latitude": 50.215807,
    "longitude": 48.777728,
    "rent": 1464,
    "name": "Evangeline"
  },
  {
    "id": "633965d54c382be02ef62dbc",
    "city": "Montura",
    "state": "Virginia",
    "bedrooms": 4,
    "country": "Saudi Arabia",
    "squareFootage": 2698,
    "picture": "http://placehold.it/32x32",
    "yearBuilt": 2014,
    "bathrooms": 5,
    "propertyType": "Single Family Home",
    "address": "720 Grove Place, Sattley, Minnesota, 2129",
    "lastSaleDate": "2024-02-18",
    "latitude": 10.576511,
    "longitude": -84.42125,
    "rent": 105,
    "name": "Herminia"
  },
  {
    "id": "633965d536bfafa3c6bc8883",
    "city": "Venice",
    "state": "Vermont",
    "bedrooms": 8,
    "country": "Central African Republic",
    "squareFootage": 1900,
    "picture": "http://placehold.it/32x32",
    "yearBuilt": 1945,
    "bathrooms": 2,
    "propertyType": "Multifamily Residential",
    "address": "872 Lancaster Avenue, Kanauga, Ohio, 5487",
    "lastSaleDate": "2023-06-02",
    "latitude": 84.38567,
    "longitude": 101.854355,
    "rent": 1336,
    "name": "Wilkerson"
  },
  {
    "id": "633965d5314f1fbad50c8a73",
    "city": "Boyd",
    "state": "Wisconsin",
    "bedrooms": 3,
    "country": "Sudan",
    "squareFootage": 1209,
    "picture": "http://placehold.it/32x32",
    "yearBuilt": 1936,
    "bathrooms": 6,
    "propertyType": "Condominium",
    "address": "843 Grafton Street, Wintersburg, South Dakota, 8904",
    "lastSaleDate": "2024-08-28",
    "latitude": -71.63854,
    "longitude": 174.415738,
    "rent": 778,
    "name": "Brittany"
  },
  {
    "id": "633965d5d7f2ba678d10044d",
    "city": "Allendale",
    "state": "Alaska",
    "bedrooms": 8,
    "country": "Reunion",
    "squareFootage": 1373,
    "picture": "http://placehold.it/32x32",
    "yearBuilt": 1977,
    "bathrooms": 6,
    "propertyType": "Condominium",
    "address": "815 Bushwick Court, Columbus, Virgin Islands, 7315",
    "lastSaleDate": "2023-09-13",
    "latitude": 24.230506,
    "longitude": -175.015994,
    "rent": 1460,
    "name": "Lolita"
  },
  {
    "id": "633965d5cf4c9b66b8e02576",
    "city": "Carrsville",
    "state": "South Carolina",
    "bedrooms": 4,
    "country": "Lebanon",
    "squareFootage": 3414,
    "picture": "http://placehold.it/32x32",
    "yearBuilt": 2015,
    "bathrooms": 4,
    "propertyType": "Personal Property",
    "address": "581 Gates Avenue, Bellfountain, California, 9821",
    "lastSaleDate": "2022-10-07",
    "latitude": 68.060777,
    "longitude": 166.441631,
    "rent": 681,
    "name": "Faith"
  },
  {
    "id": "633965d5678c4f156b0a82f0",
    "city": "Reinerton",
    "state": "Colorado",
    "bedrooms": 2,
    "country": "Belarus",
    "squareFootage": 3285,
    "picture": "http://placehold.it/32x32",
    "yearBuilt": 1935,
    "bathrooms": 4,
    "propertyType": "Personal Property",
    "address": "925 Jackson Place, Greenfields, Connecticut, 4343",
    "lastSaleDate": "2023-11-01",
    "latitude": 34.229571,
    "longitude": 94.369298,
    "rent": 437,
    "name": "Marla"
  },
  {
    "id": "633965d557dfcb493234c609",
    "city": "Bawcomville",
    "state": "Montana",
    "bedrooms": 8,
    "country": "Virgin Islands (US)",
    "squareFootage": 1333,
    "picture": "http://placehold.it/32x32",
    "yearBuilt": 1901,
    "bathrooms": 6,
    "propertyType": "Apartment",
    "address": "517 Hudson Avenue, Rushford, Maine, 4933",
    "lastSaleDate": "2022-12-08",
    "latitude": 60.510115,
    "longitude": -157.536788,
    "rent": 787,
    "name": "Miranda"
  },
  {
    "id": "633965d582c9b0789750a8c2",
    "city": "Lindcove",
    "state": "Kansas",
    "bedrooms": 5,
    "country": "Laos",
    "squareFootage": 2380,
    "picture": "http://placehold.it/32x32",
    "yearBuilt": 1961,
    "bathrooms": 4,
    "propertyType": "Residential Area",
    "address": "172 Jaffray Street, Kansas, Michigan, 3857",
    "lastSaleDate": "2024-05-04",
    "latitude": 56.842061,
    "longitude": -27.858023,
    "rent": 1102,
    "name": "Sharlene"
  },
  {
    "id": "633965d52937846d22fa93c4",
    "city": "Hoehne",
    "state": "North Dakota",
    "bedrooms": 10,
    "country": "Cambodia",
    "squareFootage": 1223,
    "picture": "http://placehold.it/32x32",
    "yearBuilt": 2014,
    "bathrooms": 2,
    "propertyType": "Condominium",
    "address": "377 Glenwood Road, Salvo, Missouri, 4035",
    "lastSaleDate": "2024-05-31",
    "latitude": -52.703371,
    "longitude": 160.033786,
    "rent": 413,
    "name": "Marianne"
  },
  {
    "id": "633965d5a027b1c6341cb110",
    "city": "Yorklyn",
    "state": "Maryland",
    "bedrooms": 4,
    "country": "Myanmar",
    "squareFootage": 2155,
    "picture": "http://placehold.it/32x32",
    "yearBuilt": 2007,
    "bathrooms": 2,
    "propertyType": "Single Family Home",
    "address": "241 Alice Court, Sexton, North Carolina, 1770",
    "lastSaleDate": "2024-10-10",
    "latitude": 33.4066,
    "longitude": -111.725616,
    "rent": 1317,
    "name": "Sallie"
  },
  {
    "id": "633965d5c43afe79dec5cbec",
    "city": "Umapine",
    "state": "Arkansas",
    "bedrooms": 3,
    "country": "Tunisia",
    "squareFootage": 2410,
    "picture": "http://placehold.it/32x32",
    "yearBuilt": 2015,
    "bathrooms": 3,
    "propertyType": "Apartment",
    "address": "196 Radde Place, Tivoli, Marshall Islands, 561",
    "lastSaleDate": "2023-12-01",
    "latitude": 77.883548,
    "longitude": 142.207785,
    "rent": 116,
    "name": "Jolene"
  },
  {
    "id": "633965d5e98f39c471749232",
    "city": "Henrietta",
    "state": "Massachusetts",
    "bedrooms": 4,
    "country": "Switzerland",
    "squareFootage": 1316,
    "picture": "http://placehold.it/32x32",
    "yearBuilt": 1994,
    "bathrooms": 6,
    "propertyType": "Apartment",
    "address": "239 Middleton Street, Beechmont, West Virginia, 2797",
    "lastSaleDate": "2023-01-16",
    "latitude": 13.673321,
    "longitude": -92.213422,
    "rent": 1427,
    "name": "Jody"
  },
  {
    "id": "633965d5d882e07a0af3405e",
    "city": "Drummond",
    "state": "Nebraska",
    "bedrooms": 10,
    "country": "Chad",
    "squareFootage": 3748,
    "picture": "http://placehold.it/32x32",
    "yearBuilt": 1920,
    "bathrooms": 6,
    "propertyType": "Condominium",
    "address": "351 Huntington Street, Roderfield, New Mexico, 934",
    "lastSaleDate": "2024-12-02",
    "latitude": -57.579866,
    "longitude": 161.776479,
    "rent": 786,
    "name": "Carey"
  },
  {
    "id": "633965d593b79105bc1dab99",
    "city": "Emerald",
    "state": "New Jersey",
    "bedrooms": 10,
    "country": "Cuba",
    "squareFootage": 2592,
    "picture": "http://placehold.it/32x32",
    "yearBuilt": 1990,
    "bathrooms": 3,
    "propertyType": "Condominium",
    "address": "767 Sapphire Street, Norfolk, Idaho, 4987",
    "lastSaleDate": "2024-09-04",
    "latitude": -80.125853,
    "longitude": 47.009702,
    "rent": 633,
    "name": "Janell"
  },
  {
    "id": "633965d5da8aa14f4c732447",
    "city": "Bentley",
    "state": "Louisiana",
    "bedrooms": 10,
    "country": "Mayotte",
    "squareFootage": 2794,
    "picture": "http://placehold.it/32x32",
    "yearBuilt": 1904,
    "bathrooms": 5,
    "propertyType": "Apartment",
    "address": "503 Vanderbilt Avenue, Riviera, Rhode Island, 6955",
    "lastSaleDate": "2023-07-01",
    "latitude": 46.241265,
    "longitude": -22.137526,
    "rent": 963,
    "name": "Peterson"
  },
  {
    "id": "633965d58a95b213417a4010",
    "city": "Romeville",
    "state": "Texas",
    "bedrooms": 2,
    "country": "Nepal",
    "squareFootage": 2461,
    "picture": "http://placehold.it/32x32",
    "yearBuilt": 1993,
    "bathrooms": 4,
    "propertyType": "Commercial Real Estate",
    "address": "493 Granite Street, Wacissa, Alabama, 662",
    "lastSaleDate": "2024-11-24",
    "latitude": 20.485348,
    "longitude": -151.77134,
    "rent": 1326,
    "name": "Martinez"
  },
  {
    "id": "633965d592d0abb56681f85e",
    "city": "Statenville",
    "state": "Federated States Of Micronesia",
    "bedrooms": 10,
    "country": "Western Sahara",
    "squareFootage": 1448,
    "picture": "http://placehold.it/32x32",
    "yearBuilt": 1942,
    "bathrooms": 3,
    "propertyType": "Multifamily Residential",
    "address": "133 Kossuth Place, Gordon, Oklahoma, 9342",
    "lastSaleDate": "2023-09-21",
    "latitude": -87.926128,
    "longitude": -112.067914,
    "rent": 1370,
    "name": "Betsy"
  },
  {
    "id": "633965d527667a2be7badc4b",
    "city": "Edmund",
    "state": "Northern Mariana Islands",
    "bedrooms": 7,
    "country": "Azerbaijan",
    "squareFootage": 1887,
    "picture": "http://placehold.it/32x32",
    "yearBuilt": 1924,
    "bathrooms": 6,
    "propertyType": "Residential Area",
    "address": "852 Trucklemans Lane, Monument, Washington, 1675",
    "lastSaleDate": "2024-07-14",
    "latitude": 52.01677,
    "longitude": 36.83345,
    "rent": 36,
    "name": "Holt"
  },
  {
    "id": "633965d5f44c1227468ccec4",
    "city": "Nutrioso",
    "state": "Delaware",
    "bedrooms": 5,
    "country": "Suriname",
    "squareFootage": 3705,
    "picture": "http://placehold.it/32x32",
    "yearBuilt": 1963,
    "bathrooms": 4,
    "propertyType": "Multifamily Residential",
    "address": "489 Melrose Street, Wheaton, Pennsylvania, 3367",
    "lastSaleDate": "2023-06-14",
    "latitude": -74.878585,
    "longitude": -55.494604,
    "rent": 268,
    "name": "Rita"
  },
  {
    "id": "633965d57ac99a908b68b0a3",
    "city": "Walland",
    "state": "Kentucky",
    "bedrooms": 4,
    "country": "Antigua and Barbuda",
    "squareFootage": 1336,
    "picture": "http://placehold.it/32x32",
    "yearBuilt": 2009,
    "bathrooms": 3,
    "propertyType": "Multifamily Residential",
    "address": "455 Hamilton Avenue, Lookingglass, District Of Columbia, 3839",
    "lastSaleDate": "2023-08-07",
    "latitude": -43.100691,
    "longitude": -64.185201,
    "rent": 205,
    "name": "Luna"
  },
  {
    "id": "633965d560862c0c46815622",
    "city": "Glenbrook",
    "state": "Mississippi",
    "bedrooms": 2,
    "country": "Djibouti",
    "squareFootage": 2846,
    "picture": "http://placehold.it/32x32",
    "yearBuilt": 2016,
    "bathrooms": 2,
    "propertyType": "Personal Property",
    "address": "474 Richards Street, Shrewsbury, Guam, 8850",
    "lastSaleDate": "2024-01-21",
    "latitude": -33.237867,
    "longitude": -16.095156,
    "rent": 902,
    "name": "Gaines"
  },
  {
    "id": "633965d563e62653ea6a8b40",
    "city": "Clarksburg",
    "state": "Palau",
    "bedrooms": 6,
    "country": "Grenada",
    "squareFootage": 2864,
    "picture": "http://placehold.it/32x32",
    "yearBuilt": 2004,
    "bathrooms": 4,
    "propertyType": "Apartment",
    "address": "411 Beaver Street, Cherokee, Oregon, 511",
    "lastSaleDate": "2023-09-19",
    "latitude": -33.66674,
    "longitude": 178.770509,
    "rent": 636,
    "name": "Carmen"
  },
  {
    "id": "633965d5e52cb3e2122b3818",
    "city": "Glendale",
    "state": "Iowa",
    "bedrooms": 8,
    "country": "Gibraltar",
    "squareFootage": 3362,
    "picture": "http://placehold.it/32x32",
    "yearBuilt": 2015,
    "bathrooms": 4,
    "propertyType": "Commercial Real Estate",
    "address": "260 Veranda Place, Groveville, Hawaii, 4690",
    "lastSaleDate": "2024-02-25",
    "latitude": 62.255234,
    "longitude": -82.028433,
    "rent": 256,
    "name": "Mann"
  },
  {
    "id": "633965d5ff15dd9c54f27d06",
    "city": "Watrous",
    "state": "Florida",
    "bedrooms": 2,
    "country": "Marshall Islands",
    "squareFootage": 2470,
    "picture": "http://placehold.it/32x32",
    "yearBuilt": 1994,
    "bathrooms": 3,
    "propertyType": "Personal Property",
    "address": "662 Lake Avenue, Virgie, American Samoa, 3897",
    "lastSaleDate": "2024-05-12",
    "latitude": 25.066154,
    "longitude": -176.329534,
    "rent": 36,
    "name": "Ellison"
  },
  {
    "id": "633965d54a64a3edf96926f3",
    "city": "Wells",
    "state": "Nevada",
    "bedrooms": 5,
    "country": "St. Pierre and Miquelon",
    "squareFootage": 3350,
    "picture": "http://placehold.it/32x32",
    "yearBuilt": 1914,
    "bathrooms": 3,
    "propertyType": "Residential Area",
    "address": "954 Seba Avenue, Soham, Tennessee, 4902",
    "lastSaleDate": "2024-09-27",
    "latitude": 53.23014,
    "longitude": 96.71436,
    "rent": 1404,
    "name": "Debbie"
  },
  {
    "id": "633965d5890073fa0621875d",
    "city": "Jacksonwald",
    "state": "Indiana",
    "bedrooms": 3,
    "country": "Barbados",
    "squareFootage": 3916,
    "picture": "http://placehold.it/32x32",
    "yearBuilt": 1965,
    "bathrooms": 2,
    "propertyType": "Personal Property",
    "address": "436 Kensington Walk, Grantville, Illinois, 1667",
    "lastSaleDate": "2024-01-10",
    "latitude": 20.408566,
    "longitude": 75.623176,
    "rent": 249,
    "name": "Susana"
  },
  {
    "id": "633965d5285e647b791f528d",
    "city": "Rivera",
    "state": "Arizona",
    "bedrooms": 6,
    "country": "Guatemala",
    "squareFootage": 1031,
    "picture": "http://placehold.it/32x32",
    "yearBuilt": 2022,
    "bathrooms": 2,
    "propertyType": "Multifamily Residential",
    "address": "796 Greenpoint Avenue, Grayhawk, Puerto Rico, 3194",
    "lastSaleDate": "2024-05-23",
    "latitude": 53.704501,
    "longitude": 62.188276,
    "rent": 317,
    "name": "Haley"
  },
  {
    "id": "633965d54c131553b1228a78",
    "city": "Forbestown",
    "state": "Georgia",
    "bedrooms": 8,
    "country": "United Kingdom",
    "squareFootage": 1219,
    "picture": "http://placehold.it/32x32",
    "yearBuilt": 2012,
    "bathrooms": 4,
    "propertyType": "Personal Property",
    "address": "194 Brighton Court, Dana, New Hampshire, 2236",
    "lastSaleDate": "2024-06-06",
    "latitude": -7.4992,
    "longitude": 68.944851,
    "rent": 604,
    "name": "Knox"
  },
  {
    "id": "633965d52548e261b44636ad",
    "city": "Riner",
    "state": "Utah",
    "bedrooms": 5,
    "country": "Guadeloupe",
    "squareFootage": 2967,
    "picture": "http://placehold.it/32x32",
    "yearBuilt": 1999,
    "bathrooms": 3,
    "propertyType": "Apartment",
    "address": "352 Irwin Street, Gilgo, Wyoming, 3272",
    "lastSaleDate": "2023-10-31",
    "latitude": -61.134733,
    "longitude": -100.238383,
    "rent": 203,
    "name": "Sophie"
  },
  {
    "id": "633965d5b5388549fcf6a1f3",
    "city": "Dante",
    "state": "Virginia",
    "bedrooms": 6,
    "country": "Romania",
    "squareFootage": 2972,
    "picture": "http://placehold.it/32x32",
    "yearBuilt": 1982,
    "bathrooms": 4,
    "propertyType": "Single Family Home",
    "address": "521 Jefferson Avenue, Dupuyer, Minnesota, 4219",
    "lastSaleDate": "2024-08-23",
    "latitude": 41.504653,
    "longitude": -88.966892,
    "rent": 869,
    "name": "Schneider"
  },
  {
    "id": "633965d56f579029d3de1859",
    "city": "Coleville",
    "state": "Vermont",
    "bedrooms": 4,
    "country": "Italy",
    "squareFootage": 2574,
    "picture": "http://placehold.it/32x32",
    "yearBuilt": 1942,
    "bathrooms": 4,
    "propertyType": "Apartment",
    "address": "575 Pierrepont Street, Hinsdale, Ohio, 554",
    "lastSaleDate": "2023-10-16",
    "latitude": 75.071052,
    "longitude": 29.439836,
    "rent": 1466,
    "name": "Virginia"
  },
  {
    "id": "633965d541c72899fa4504ad",
    "city": "Kent",
    "state": "Wisconsin",
    "bedrooms": 7,
    "country": "Taiwan",
    "squareFootage": 2162,
    "picture": "http://placehold.it/32x32",
    "yearBuilt": 2010,
    "bathrooms": 4,
    "propertyType": "Residential Area",
    "address": "495 Tech Place, Shawmut, South Dakota, 2794",
    "lastSaleDate": "2023-07-17",
    "latitude": -43.785618,
    "longitude": 26.404246,
    "rent": 1098,
    "name": "Farrell"
  },
  {
    "id": "633965d53dd23648b74755b7",
    "city": "Kirk",
    "state": "Alaska",
    "bedrooms": 2,
    "country": "Guinea-Bissau",
    "squareFootage": 3739,
    "picture": "http://placehold.it/32x32",
    "yearBuilt": 1992,
    "bathrooms": 3,
    "propertyType": "Residential Area",
    "address": "954 Kane Street, Orick, Virgin Islands, 593",
    "lastSaleDate": "2023-03-04",
    "latitude": 52.141519,
    "longitude": 25.604044,
    "rent": 1473,
    "name": "Angelina"
  },
  {
    "id": "633965d56192c9ad8773296f",
    "city": "Choctaw",
    "state": "South Carolina",
    "bedrooms": 5,
    "country": "Ghana",
    "squareFootage": 1187,
    "picture": "http://placehold.it/32x32",
    "yearBuilt": 2018,
    "bathrooms": 6,
    "propertyType": "Apartment",
    "address": "177 Ludlam Place, Genoa, California, 7045",
    "lastSaleDate": "2022-12-07",
    "latitude": -38.594329,
    "longitude": 135.382365,
    "rent": 1403,
    "name": "Campos"
  },
  {
    "id": "633965d53778d85a3f85dfba",
    "city": "Corinne",
    "state": "Colorado",
    "bedrooms": 5,
    "country": "India",
    "squareFootage": 2670,
    "picture": "http://placehold.it/32x32",
    "yearBuilt": 2006,
    "bathrooms": 3,
    "propertyType": "Personal Property",
    "address": "975 Clymer Street, Malo, Connecticut, 7816",
    "lastSaleDate": "2022-10-03",
    "latitude": -77.387357,
    "longitude": -59.869942,
    "rent": 521,
    "name": "Kayla"
  },
  {
    "id": "633965d544fe6384fbf61765",
    "city": "Avoca",
    "state": "Montana",
    "bedrooms": 9,
    "country": "Togo",
    "squareFootage": 2839,
    "picture": "http://placehold.it/32x32",
    "yearBuilt": 1915,
    "bathrooms": 4,
    "propertyType": "Residential Area",
    "address": "969 Amherst Street, Shelby, Maine, 1976",
    "lastSaleDate": "2024-09-20",
    "latitude": -39.54871,
    "longitude": 101.121571,
    "rent": 554,
    "name": "Bass"
  },
  {
    "id": "633965d5b323cf856a5b4513",
    "city": "Brambleton",
    "state": "Kansas",
    "bedrooms": 5,
    "country": "Andorra",
    "squareFootage": 3702,
    "picture": "http://placehold.it/32x32",
    "yearBuilt": 1901,
    "bathrooms": 6,
    "propertyType": "Residential Area",
    "address": "743 Bay Avenue, Newry, Michigan, 9729",
    "lastSaleDate": "2022-12-31",
    "latitude": 82.87863,
    "longitude": 66.896664,
    "rent": 1160,
    "name": "Nancy"
  },
  {
    "id": "633965d57fea32413c840869",
    "city": "Independence",
    "state": "North Dakota",
    "bedrooms": 6,
    "country": "Australia",
    "squareFootage": 2032,
    "picture": "http://placehold.it/32x32",
    "yearBuilt": 1963,
    "bathrooms": 6,
    "propertyType": "Residential Area",
    "address": "330 Hall Street, Grill, Missouri, 2795",
    "lastSaleDate": "2024-03-14",
    "latitude": 21.950415,
    "longitude": 123.878527,
    "rent": 551,
    "name": "Janet"
  },
  {
    "id": "633965d5b598b6053dc080c9",
    "city": "Worton",
    "state": "Maryland",
    "bedrooms": 2,
    "country": "Senegal",
    "squareFootage": 1999,
    "picture": "http://placehold.it/32x32",
    "yearBuilt": 2001,
    "bathrooms": 5,
    "propertyType": "Single Family Home",
    "address": "700 Ivan Court, Whipholt, North Carolina, 9412",
    "lastSaleDate": "2023-12-23",
    "latitude": 36.623951,
    "longitude": 123.222738,
    "rent": 1463,
    "name": "Graves"
  },
  {
    "id": "633965d51600ecb5a50198fd",
    "city": "Aurora",
    "state": "Arkansas",
    "bedrooms": 10,
    "country": "Bangladesh",
    "squareFootage": 3162,
    "picture": "http://placehold.it/32x32",
    "yearBuilt": 1927,
    "bathrooms": 4,
    "propertyType": "Commercial Real Estate",
    "address": "451 Balfour Place, Klondike, Marshall Islands, 5538",
    "lastSaleDate": "2024-05-05",
    "latitude": 49.403758,
    "longitude": 153.243297,
    "rent": 793,
    "name": "Catherine"
  },
  {
    "id": "633965d530597fde00b1fffa",
    "city": "Deltaville",
    "state": "Massachusetts",
    "bedrooms": 5,
    "country": "Ireland",
    "squareFootage": 2670,
    "picture": "http://placehold.it/32x32",
    "yearBuilt": 1976,
    "bathrooms": 5,
    "propertyType": "Residential Area",
    "address": "203 Greenwood Avenue, Churchill, West Virginia, 6781",
    "lastSaleDate": "2024-06-21",
    "latitude": -3.009437,
    "longitude": -179.865302,
    "rent": 252,
    "name": "Susie"
  },
  {
    "id": "633965d5bacd013ea68d44c5",
    "city": "Roberts",
    "state": "Nebraska",
    "bedrooms": 7,
    "country": "Monaco",
    "squareFootage": 2180,
    "picture": "http://placehold.it/32x32",
    "yearBuilt": 1923,
    "bathrooms": 3,
    "propertyType": "Single Family Home",
    "address": "523 Roosevelt Court, Zortman, New Mexico, 7193",
    "lastSaleDate": "2024-11-26",
    "latitude": -41.824136,
    "longitude": -143.245212,
    "rent": 1400,
    "name": "Hester"
  },
  {
    "id": "633965d5ce3be091e8ee40c8",
    "city": "Kenmar",
    "state": "New Jersey",
    "bedrooms": 10,
    "country": "Niue",
    "squareFootage": 1949,
    "picture": "http://placehold.it/32x32",
    "yearBuilt": 1936,
    "bathrooms": 3,
    "propertyType": "Commercial Real Estate",
    "address": "736 Hendrix Street, Chesapeake, Idaho, 3252",
    "lastSaleDate": "2023-04-14",
    "latitude": 6.867439,
    "longitude": -167.598293,
    "rent": 146,
    "name": "Ericka"
  },
  {
    "id": "633965d5c0c42371466bc969",
    "city": "Summerfield",
    "state": "Louisiana",
    "bedrooms": 10,
    "country": "Cocos (Keeling Islands)",
    "squareFootage": 3837,
    "picture": "http://placehold.it/32x32",
    "yearBuilt": 1922,
    "bathrooms": 4,
    "propertyType": "Multifamily Residential",
    "address": "731 Harden Street, Ballico, Rhode Island, 3193",
    "lastSaleDate": "2023-02-20",
    "latitude": -61.50412,
    "longitude": -92.51041,
    "rent": 1191,
    "name": "Kirsten"
  },
  {
    "id": "633965d5e4d2bb689e91afaf",
    "city": "Rose",
    "state": "Texas",
    "bedrooms": 3,
    "country": "El Salvador",
    "squareFootage": 1975,
    "picture": "http://placehold.it/32x32",
    "yearBuilt": 1951,
    "bathrooms": 3,
    "propertyType": "Commercial Real Estate",
    "address": "275 Beach Place, Mahtowa, Alabama, 3077",
    "lastSaleDate": "2024-07-22",
    "latitude": -40.49559,
    "longitude": 18.636118,
    "rent": 347,
    "name": "Moody"
  },
  {
    "id": "633965d5864b72755516a827",
    "city": "Oretta",
    "state": "Federated States Of Micronesia",
    "bedrooms": 10,
    "country": "Turkey",
    "squareFootage": 3956,
    "picture": "http://placehold.it/32x32",
    "yearBuilt": 1919,
    "bathrooms": 2,
    "propertyType": "Commercial Real Estate",
    "address": "457 Vandervoort Place, Rosburg, Oklahoma, 2319",
    "lastSaleDate": "2023-10-27",
    "latitude": 74.581025,
    "longitude": -151.59075,
    "rent": 400,
    "name": "Hopkins"
  },
  {
    "id": "633965d5dcec37cf6d6e498c",
    "city": "Waumandee",
    "state": "Northern Mariana Islands",
    "bedrooms": 8,
    "country": "Kuwait",
    "squareFootage": 2662,
    "picture": "http://placehold.it/32x32",
    "yearBuilt": 1961,
    "bathrooms": 5,
    "propertyType": "Single Family Home",
    "address": "953 Beaumont Street, Clara, Washington, 3654",
    "lastSaleDate": "2024-08-09",
    "latitude": -53.053908,
    "longitude": 73.556848,
    "rent": 1075,
    "name": "Deleon"
  },
  {
    "id": "633965d5632987ad832c9af1",
    "city": "Idamay",
    "state": "Delaware",
    "bedrooms": 4,
    "country": "Heard and McDonald Islands",
    "squareFootage": 2080,
    "picture": "http://placehold.it/32x32",
    "yearBuilt": 1989,
    "bathrooms": 4,
    "propertyType": "Personal Property",
    "address": "952 Richardson Street, Leola, Pennsylvania, 8646",
    "lastSaleDate": "2024-12-11",
    "latitude": 82.860943,
    "longitude": 165.591902,
    "rent": 336,
    "name": "Lakisha"
  },
  {
    "id": "633965d5a9291a648f22bcba",
    "city": "Moscow",
    "state": "Kentucky",
    "bedrooms": 5,
    "country": "Christmas Island",
    "squareFootage": 3869,
    "picture": "http://placehold.it/32x32",
    "yearBuilt": 1903,
    "bathrooms": 4,
    "propertyType": "Single Family Home",
    "address": "721 Russell Street, Grazierville, District Of Columbia, 5419",
    "lastSaleDate": "2024-03-12",
    "latitude": 83.1341,
    "longitude": -132.659079,
    "rent": 1240,
    "name": "Joy"
  },
  {
    "id": "633965d57d14ab2e60adece0",
    "city": "Conestoga",
    "state": "Mississippi",
    "bedrooms": 8,
    "country": "Cape Verde",
    "squareFootage": 1966,
    "picture": "http://placehold.it/32x32",
    "yearBuilt": 2013,
    "bathrooms": 3,
    "propertyType": "Single Family Home",
    "address": "859 Varick Avenue, Russellville, Guam, 5836",
    "lastSaleDate": "2024-05-14",
    "latitude": 33.528504,
    "longitude": 36.996052,
    "rent": 149,
    "name": "Leigh"
  },
  {
    "id": "633965d50a3078d113542bbd",
    "city": "Blende",
    "state": "Palau",
    "bedrooms": 8,
    "country": "Ethiopia",
    "squareFootage": 1008,
    "picture": "http://placehold.it/32x32",
    "yearBuilt": 1942,
    "bathrooms": 4,
    "propertyType": "Single Family Home",
    "address": "922 Bowery Street, Oneida, Oregon, 7032",
    "lastSaleDate": "2024-05-05",
    "latitude": -27.921231,
    "longitude": -95.311126,
    "rent": 729,
    "name": "Leblanc"
  },
  {
    "id": "633965d55ae8659cc7470013",
    "city": "Whitmer",
    "state": "Iowa",
    "bedrooms": 8,
    "country": "Fiji",
    "squareFootage": 2627,
    "picture": "http://placehold.it/32x32",
    "yearBuilt": 1971,
    "bathrooms": 2,
    "propertyType": "Personal Property",
    "address": "915 Agate Court, Springdale, Hawaii, 9305",
    "lastSaleDate": "2023-02-26",
    "latitude": 50.426903,
    "longitude": -63.436058,
    "rent": 1290,
    "name": "Byrd"
  },
  {
    "id": "633965d5361400d0f8d9122a",
    "city": "Klagetoh",
    "state": "Florida",
    "bedrooms": 6,
    "country": "Yugoslavia",
    "squareFootage": 2271,
    "picture": "http://placehold.it/32x32",
    "yearBuilt": 2005,
    "bathrooms": 4,
    "propertyType": "Condominium",
    "address": "444 Garden Street, Homeworth, American Samoa, 7768",
    "lastSaleDate": "2024-03-10",
    "latitude": 76.91551,
    "longitude": -25.573892,
    "rent": 539,
    "name": "Pate"
  },
  {
    "id": "633965d5e06c5294c9f589ff",
    "city": "Grandview",
    "state": "Nevada",
    "bedrooms": 4,
    "country": "Latvia",
    "squareFootage": 2883,
    "picture": "http://placehold.it/32x32",
    "yearBuilt": 1973,
    "bathrooms": 6,
    "propertyType": "Personal Property",
    "address": "764 Campus Place, Grenelefe, Tennessee, 6844",
    "lastSaleDate": "2023-06-13",
    "latitude": 44.233197,
    "longitude": 78.343003,
    "rent": 1303,
    "name": "Ernestine"
  },
  {
    "id": "633965d532637886a165b1a1",
    "city": "Herbster",
    "state": "Indiana",
    "bedrooms": 5,
    "country": "Burundi",
    "squareFootage": 3877,
    "picture": "http://placehold.it/32x32",
    "yearBuilt": 1908,
    "bathrooms": 5,
    "propertyType": "Single Family Home",
    "address": "132 Celeste Court, Benson, Illinois, 5827",
    "lastSaleDate": "2024-04-26",
    "latitude": 78.195015,
    "longitude": 32.940779,
    "rent": 99,
    "name": "Jacobs"
  },
  {
    "id": "633965d5179e27c97cd9279d",
    "city": "Vicksburg",
    "state": "Arizona",
    "bedrooms": 2,
    "country": "Thailand",
    "squareFootage": 3563,
    "picture": "http://placehold.it/32x32",
    "yearBuilt": 1904,
    "bathrooms": 3,
    "propertyType": "Condominium",
    "address": "722 Glenmore Avenue, Retsof, Puerto Rico, 3871",
    "lastSaleDate": "2023-06-03",
    "latitude": 16.5053,
    "longitude": 87.425482,
    "rent": 284,
    "name": "Lara"
  },
  {
    "id": "633965d58e3d32604d50b9dc",
    "city": "Conway",
    "state": "Georgia",
    "bedrooms": 7,
    "country": "Saint Vincent and The Grenadines",
    "squareFootage": 3247,
    "picture": "http://placehold.it/32x32",
    "yearBuilt": 1904,
    "bathrooms": 5,
    "propertyType": "Single Family Home",
    "address": "247 Sunnyside Court, Bayview, New Hampshire, 7645",
    "lastSaleDate": "2023-02-05",
    "latitude": -33.194296,
    "longitude": 99.507366,
    "rent": 1055,
    "name": "Gladys"
  },
  {
    "id": "633965d5e8bf53de41908b90",
    "city": "Barstow",
    "state": "Utah",
    "bedrooms": 3,
    "country": "Iraq",
    "squareFootage": 2115,
    "picture": "http://placehold.it/32x32",
    "yearBuilt": 1958,
    "bathrooms": 4,
    "propertyType": "Residential Area",
    "address": "207 Brigham Street, Bentonville, Wyoming, 712",
    "lastSaleDate": "2024-02-28",
    "latitude": -73.155027,
    "longitude": -147.480615,
    "rent": 1492,
    "name": "Small"
  },
  {
    "id": "633965d5582e16d57d6dcd3b",
    "city": "Odessa",
    "state": "Virginia",
    "bedrooms": 10,
    "country": "Vanuatu",
    "squareFootage": 1873,
    "picture": "http://placehold.it/32x32",
    "yearBuilt": 1933,
    "bathrooms": 4,
    "propertyType": "Condominium",
    "address": "677 Ridge Boulevard, Caledonia, Minnesota, 2135",
    "lastSaleDate": "2024-02-20",
    "latitude": -22.49801,
    "longitude": 20.037451,
    "rent": 1474,
    "name": "Camacho"
  },
  {
    "id": "633965d556ff4194ee6db585",
    "city": "Kohatk",
    "state": "Vermont",
    "bedrooms": 2,
    "country": "Bulgaria",
    "squareFootage": 1973,
    "picture": "http://placehold.it/32x32",
    "yearBuilt": 1978,
    "bathrooms": 5,
    "propertyType": "Commercial Real Estate",
    "address": "938 Catherine Street, Cornucopia, Ohio, 9376",
    "lastSaleDate": "2022-10-24",
    "latitude": 83.484359,
    "longitude": -73.103769,
    "rent": 845,
    "name": "Woods"
  },
  {
    "id": "633965d511ac7a38eef52dcc",
    "city": "Campo",
    "state": "Wisconsin",
    "bedrooms": 10,
    "country": "Greece",
    "squareFootage": 1242,
    "picture": "http://placehold.it/32x32",
    "yearBuilt": 1969,
    "bathrooms": 5,
    "propertyType": "Residential Area",
    "address": "846 Willmohr Street, Newkirk, South Dakota, 9007",
    "lastSaleDate": "2023-08-22",
    "latitude": 40.748811,
    "longitude": 11.775684,
    "rent": 555,
    "name": "Pennington"
  },
  {
    "id": "633965d5204611a7500e1c11",
    "city": "Lindisfarne",
    "state": "Alaska",
    "bedrooms": 5,
    "country": "Rwanda",
    "squareFootage": 1824,
    "picture": "http://placehold.it/32x32",
    "yearBuilt": 1993,
    "bathrooms": 4,
    "propertyType": "Condominium",
    "address": "932 Neptune Avenue, Torboy, Virgin Islands, 3048",
    "lastSaleDate": "2023-01-27",
    "latitude": -57.269943,
    "longitude": -96.871855,
    "rent": 76,
    "name": "Gabriela"
  },
  {
    "id": "633965d51200fdc87289eaf9",
    "city": "Noxen",
    "state": "South Carolina",
    "bedrooms": 4,
    "country": "Mauritania",
    "squareFootage": 2293,
    "picture": "http://placehold.it/32x32",
    "yearBuilt": 1960,
    "bathrooms": 5,
    "propertyType": "Condominium",
    "address": "724 Blake Avenue, Jamestown, California, 9995",
    "lastSaleDate": "2023-11-10",
    "latitude": 16.318239,
    "longitude": -75.729515,
    "rent": 609,
    "name": "Case"
  },
  {
    "id": "633965d520f2f2d0a486dbdb",
    "city": "Glasgow",
    "state": "Colorado",
    "bedrooms": 3,
    "country": "Syria",
    "squareFootage": 3936,
    "picture": "http://placehold.it/32x32",
    "yearBuilt": 2001,
    "bathrooms": 5,
    "propertyType": "Apartment",
    "address": "195 Bethel Loop, Chautauqua, Connecticut, 6220",
    "lastSaleDate": "2022-12-15",
    "latitude": -67.615045,
    "longitude": -23.313444,
    "rent": 488,
    "name": "Juana"
  },
  {
    "id": "633965d5e0ab3f45ba1f720e",
    "city": "Allison",
    "state": "Montana",
    "bedrooms": 5,
    "country": "Eritrea",
    "squareFootage": 1607,
    "picture": "http://placehold.it/32x32",
    "yearBuilt": 2014,
    "bathrooms": 6,
    "propertyType": "Condominium",
    "address": "967 Quincy Street, Ellerslie, Maine, 187",
    "lastSaleDate": "2023-05-05",
    "latitude": 62.666672,
    "longitude": -104.886876,
    "rent": 1450,
    "name": "Debora"
  },
  {
    "id": "633965d5280d8595a4103b91",
    "city": "Magnolia",
    "state": "Kansas",
    "bedrooms": 4,
    "country": "Liberia",
    "squareFootage": 3068,
    "picture": "http://placehold.it/32x32",
    "yearBuilt": 1967,
    "bathrooms": 6,
    "propertyType": "Apartment",
    "address": "411 Dahlgreen Place, Gerber, Michigan, 458",
    "lastSaleDate": "2024-06-12",
    "latitude": 48.737563,
    "longitude": 45.29271,
    "rent": 976,
    "name": "Shelia"
  },
  {
    "id": "633965d5513fdc9afd27339c",
    "city": "Greer",
    "state": "North Dakota",
    "bedrooms": 9,
    "country": "Nauru",
    "squareFootage": 1302,
    "picture": "http://placehold.it/32x32",
    "yearBuilt": 1958,
    "bathrooms": 5,
    "propertyType": "Single Family Home",
    "address": "458 National Drive, Seymour, Missouri, 1298",
    "lastSaleDate": "2023-04-13",
    "latitude": -18.529403,
    "longitude": 48.879332,
    "rent": 271,
    "name": "Gabrielle"
  },
  {
    "id": "633965d5b032256e53c31022",
    "city": "Maybell",
    "state": "Maryland",
    "bedrooms": 8,
    "country": "Sierra Leone",
    "squareFootage": 1770,
    "picture": "http://placehold.it/32x32",
    "yearBuilt": 2009,
    "bathrooms": 4,
    "propertyType": "Apartment",
    "address": "562 Maple Street, Felt, North Carolina, 5888",
    "lastSaleDate": "2023-09-12",
    "latitude": 6.142783,
    "longitude": 176.48893,
    "rent": 448,
    "name": "Henrietta"
  },
  {
    "id": "633965d5b3810684dcbc1b88",
    "city": "Kipp",
    "state": "Arkansas",
    "bedrooms": 7,
    "country": "Venezuela",
    "squareFootage": 1727,
    "picture": "http://placehold.it/32x32",
    "yearBuilt": 1998,
    "bathrooms": 5,
    "propertyType": "Personal Property",
    "address": "222 Legion Street, Remington, Marshall Islands, 4002",
    "lastSaleDate": "2024-07-14",
    "latitude": -60.598623,
    "longitude": 107.288068,
    "rent": 622,
    "name": "Barr"
  },
  {
    "id": "633965d5fb3e2e13b1b60647",
    "city": "Why",
    "state": "Massachusetts",
    "bedrooms": 2,
    "country": "Ukraine",
    "squareFootage": 3663,
    "picture": "http://placehold.it/32x32",
    "yearBuilt": 1984,
    "bathrooms": 4,
    "propertyType": "Residential Area",
    "address": "438 Fleet Walk, Emison, West Virginia, 8282",
    "lastSaleDate": "2023-10-14",
    "latitude": -69.77776,
    "longitude": -35.107368,
    "rent": 1125,
    "name": "Jerry"
  },
  {
    "id": "633965d58369253c1699716a",
    "city": "Glidden",
    "state": "Nebraska",
    "bedrooms": 6,
    "country": "New Zealand",
    "squareFootage": 2815,
    "picture": "http://placehold.it/32x32",
    "yearBuilt": 1978,
    "bathrooms": 3,
    "propertyType": "Personal Property",
    "address": "249 Grand Street, Cleary, New Mexico, 8632",
    "lastSaleDate": "2023-03-31",
    "latitude": 56.383686,
    "longitude": -118.093039,
    "rent": 880,
    "name": "Mayer"
  },
  {
    "id": "633965d5dac29e55a84d31a1",
    "city": "Succasunna",
    "state": "New Jersey",
    "bedrooms": 6,
    "country": "Germany",
    "squareFootage": 2143,
    "picture": "http://placehold.it/32x32",
    "yearBuilt": 1912,
    "bathrooms": 3,
    "propertyType": "Apartment",
    "address": "660 Barwell Terrace, Byrnedale, Idaho, 764",
    "lastSaleDate": "2023-05-11",
    "latitude": 65.801186,
    "longitude": -129.37291,
    "rent": 1028,
    "name": "Acosta"
  },
  {
    "id": "633965d5c394de863f2aefbe",
    "city": "Orovada",
    "state": "Louisiana",
    "bedrooms": 4,
    "country": "Armenia",
    "squareFootage": 2504,
    "picture": "http://placehold.it/32x32",
    "yearBuilt": 1985,
    "bathrooms": 2,
    "propertyType": "Multifamily Residential",
    "address": "619 Amboy Street, Sutton, Rhode Island, 8079",
    "lastSaleDate": "2024-01-22",
    "latitude": -14.132105,
    "longitude": 56.434164,
    "rent": 864,
    "name": "Callie"
  },
  {
    "id": "633965d58a5f55feba193f4d",
    "city": "Matheny",
    "state": "Texas",
    "bedrooms": 9,
    "country": "Montserrat",
    "squareFootage": 1713,
    "picture": "http://placehold.it/32x32",
    "yearBuilt": 1908,
    "bathrooms": 5,
    "propertyType": "Single Family Home",
    "address": "474 Beverley Road, Johnsonburg, Alabama, 1691",
    "lastSaleDate": "2024-10-06",
    "latitude": -76.799287,
    "longitude": 70.428469,
    "rent": 1105,
    "name": "Melinda"
  },
  {
    "id": "633965d5f6df3d6b31dc5a67",
    "city": "Eden",
    "state": "Federated States Of Micronesia",
    "bedrooms": 2,
    "country": "Algeria",
    "squareFootage": 3978,
    "picture": "http://placehold.it/32x32",
    "yearBuilt": 1942,
    "bathrooms": 5,
    "propertyType": "Commercial Real Estate",
    "address": "421 Nixon Court, Roland, Oklahoma, 8466",
    "lastSaleDate": "2023-07-14",
    "latitude": -1.289285,
    "longitude": -35.363392,
    "rent": 1498,
    "name": "Tate"
  },
  {
    "id": "633965d57e3fbf82d2228a46",
    "city": "Ypsilanti",
    "state": "Northern Mariana Islands",
    "bedrooms": 2,
    "country": "Solomon Islands",
    "squareFootage": 1981,
    "picture": "http://placehold.it/32x32",
    "yearBuilt": 1958,
    "bathrooms": 2,
    "propertyType": "Residential Area",
    "address": "231 Troutman Street, Wyoming, Washington, 9656",
    "lastSaleDate": "2023-06-14",
    "latitude": 41.405969,
    "longitude": 127.221087,
    "rent": 939,
    "name": "Rena"
  },
  {
    "id": "633965d5a41027c6980d2832",
    "city": "Ivanhoe",
    "state": "Delaware",
    "bedrooms": 5,
    "country": "Papua New Guinea",
    "squareFootage": 2697,
    "picture": "http://placehold.it/32x32",
    "yearBuilt": 1934,
    "bathrooms": 5,
    "propertyType": "Multifamily Residential",
    "address": "270 Verona Place, Grapeview, Pennsylvania, 8305",
    "lastSaleDate": "2023-09-14",
    "latitude": -38.181891,
    "longitude": -82.040691,
    "rent": 1385,
    "name": "Gail"
  },
  {
    "id": "633965d5c7ce2d72e41762da",
    "city": "Starks",
    "state": "Kentucky",
    "bedrooms": 8,
    "country": "Brazil",
    "squareFootage": 1617,
    "picture": "http://placehold.it/32x32",
    "yearBuilt": 1979,
    "bathrooms": 4,
    "propertyType": "Commercial Real Estate",
    "address": "903 Sutter Avenue, Ironton, District Of Columbia, 8289",
    "lastSaleDate": "2023-09-10",
    "latitude": -31.805422,
    "longitude": 111.172756,
    "rent": 1454,
    "name": "Hendricks"
  },
  {
    "id": "633965d57e9d5103574b55cf",
    "city": "Englevale",
    "state": "Mississippi",
    "bedrooms": 2,
    "country": "Tokelau",
    "squareFootage": 1993,
    "picture": "http://placehold.it/32x32",
    "yearBuilt": 1998,
    "bathrooms": 6,
    "propertyType": "Apartment",
    "address": "260 Robert Street, Brandywine, Guam, 5461",
    "lastSaleDate": "2024-09-12",
    "latitude": 83.830761,
    "longitude": 51.467445,
    "rent": 1458,
    "name": "Opal"
  },
  {
    "id": "633965d597ded14d1b608754",
    "city": "Jackpot",
    "state": "Palau",
    "bedrooms": 7,
    "country": "Burkina Faso",
    "squareFootage": 2777,
    "picture": "http://placehold.it/32x32",
    "yearBuilt": 1929,
    "bathrooms": 5,
    "propertyType": "Condominium",
    "address": "424 Blake Court, Mammoth, Oregon, 2501",
    "lastSaleDate": "2024-09-19",
    "latitude": -85.769967,
    "longitude": 68.65856,
    "rent": 253,
    "name": "Shelly"
  },
  {
    "id": "633965d5a8e33eb23ab4569f",
    "city": "Fairfield",
    "state": "Iowa",
    "bedrooms": 8,
    "country": "Bouvet Island",
    "squareFootage": 1091,
    "picture": "http://placehold.it/32x32",
    "yearBuilt": 2013,
    "bathrooms": 5,
    "propertyType": "Apartment",
    "address": "350 Howard Place, Bennett, Hawaii, 6813",
    "lastSaleDate": "2023-01-05",
    "latitude": 69.577625,
    "longitude": -154.191575,
    "rent": 590,
    "name": "Lesa"
  },
  {
    "id": "633965d57c5f71f9e26076ac",
    "city": "Eastvale",
    "state": "Florida",
    "bedrooms": 10,
    "country": "San Marino",
    "squareFootage": 3879,
    "picture": "http://placehold.it/32x32",
    "yearBuilt": 1942,
    "bathrooms": 5,
    "propertyType": "Multifamily Residential",
    "address": "731 Johnson Street, Manila, American Samoa, 2317",
    "lastSaleDate": "2023-03-05",
    "latitude": 44.013476,
    "longitude": 131.307405,
    "rent": 111,
    "name": "Tracie"
  },
  {
    "id": "633965d5cf397126fc422d89",
    "city": "Yukon",
    "state": "Nevada",
    "bedrooms": 3,
    "country": "United Arab Emirates",
    "squareFootage": 3980,
    "picture": "http://placehold.it/32x32",
    "yearBuilt": 1945,
    "bathrooms": 3,
    "propertyType": "Single Family Home",
    "address": "285 Meeker Avenue, Hall, Tennessee, 465",
    "lastSaleDate": "2024-10-02",
    "latitude": -49.316859,
    "longitude": 25.821359,
    "rent": 35,
    "name": "Sheena"
  },
  {
    "id": "633965d5b48569a3916a6fd6",
    "city": "Cassel",
    "state": "Indiana",
    "bedrooms": 8,
    "country": "Uganda",
    "squareFootage": 2381,
    "picture": "http://placehold.it/32x32",
    "yearBuilt": 1998,
    "bathrooms": 2,
    "propertyType": "Multifamily Residential",
    "address": "930 Poly Place, Golconda, Illinois, 2623",
    "lastSaleDate": "2024-05-16",
    "latitude": 43.036757,
    "longitude": -151.602958,
    "rent": 856,
    "name": "Laura"
  },
  {
    "id": "633965d52cbf34c4a1670167",
    "city": "Delwood",
    "state": "Arizona",
    "bedrooms": 10,
    "country": "Equatorial Guinea",
    "squareFootage": 2598,
    "picture": "http://placehold.it/32x32",
    "yearBuilt": 1924,
    "bathrooms": 5,
    "propertyType": "Commercial Real Estate",
    "address": "556 Varick Street, Holtville, Puerto Rico, 5513",
    "lastSaleDate": "2023-06-15",
    "latitude": 71.485379,
    "longitude": 0.299684,
    "rent": 702,
    "name": "Lorrie"
  },
  {
    "id": "633965d5b85b111f6572e8dc",
    "city": "Titanic",
    "state": "Georgia",
    "bedrooms": 4,
    "country": "Vatican City State (Holy See)",
    "squareFootage": 2006,
    "picture": "http://placehold.it/32x32",
    "yearBuilt": 1930,
    "bathrooms": 6,
    "propertyType": "Commercial Real Estate",
    "address": "708 Ridgecrest Terrace, Concho, New Hampshire, 3594",
    "lastSaleDate": "2023-04-18",
    "latitude": 23.152544,
    "longitude": -174.929742,
    "rent": 589,
    "name": "Abby"
  },
  {
    "id": "633965d5aca7bea6f7c99ee6",
    "city": "Crisman",
    "state": "Utah",
    "bedrooms": 8,
    "country": "Mexico",
    "squareFootage": 2589,
    "picture": "http://placehold.it/32x32",
    "yearBuilt": 1919,
    "bathrooms": 3,
    "propertyType": "Personal Property",
    "address": "981 Rugby Road, Mooresburg, Wyoming, 868",
    "lastSaleDate": "2023-08-03",
    "latitude": -76.799105,
    "longitude": 12.916092,
    "rent": 961,
    "name": "Viola"
  },
  {
    "id": "633965d5f79c5c73c74c32db",
    "city": "Herlong",
    "state": "Virginia",
    "bedrooms": 2,
    "country": "Zaire",
    "squareFootage": 1781,
    "picture": "http://placehold.it/32x32",
    "yearBuilt": 1915,
    "bathrooms": 5,
    "propertyType": "Single Family Home",
    "address": "509 Schenck Street, Bodega, Minnesota, 1297",
    "lastSaleDate": "2024-03-21",
    "latitude": -1.234058,
    "longitude": 109.137801,
    "rent": 296,
    "name": "Kellie"
  },
  {
    "id": "633965d54af666016421762a",
    "city": "Sisquoc",
    "state": "Vermont",
    "bedrooms": 4,
    "country": "Afghanistan",
    "squareFootage": 1777,
    "picture": "http://placehold.it/32x32",
    "yearBuilt": 1945,
    "bathrooms": 6,
    "propertyType": "Residential Area",
    "address": "191 Clark Street, Fairlee, Ohio, 4635",
    "lastSaleDate": "2024-12-24",
    "latitude": 87.034324,
    "longitude": 37.024209,
    "rent": 592,
    "name": "Hays"
  },
  {
    "id": "633965d50731e17cc0885f18",
    "city": "Tuskahoma",
    "state": "Wisconsin",
    "bedrooms": 4,
    "country": "Madagascar",
    "squareFootage": 2945,
    "picture": "http://placehold.it/32x32",
    "yearBuilt": 2017,
    "bathrooms": 5,
    "propertyType": "Commercial Real Estate",
    "address": "948 Bryant Street, Macdona, South Dakota, 3050",
    "lastSaleDate": "2022-11-18",
    "latitude": 44.773922,
    "longitude": -51.125397,
    "rent": 897,
    "name": "Barbara"
  },
  {
    "id": "633965d54ea6d336a19126b6",
    "city": "Coultervillle",
    "state": "Alaska",
    "bedrooms": 2,
    "country": "Swaziland",
    "squareFootage": 3887,
    "picture": "http://placehold.it/32x32",
    "yearBuilt": 2002,
    "bathrooms": 6,
    "propertyType": "Personal Property",
    "address": "435 Jodie Court, Blue, Virgin Islands, 9313",
    "lastSaleDate": "2023-01-12",
    "latitude": -24.220184,
    "longitude": -144.732457,
    "rent": 765,
    "name": "Parsons"
  },
  {
    "id": "633965d58984d48be1d1c27d",
    "city": "Jardine",
    "state": "South Carolina",
    "bedrooms": 7,
    "country": "Svalbard and Jan Mayen Islands",
    "squareFootage": 2401,
    "picture": "http://placehold.it/32x32",
    "yearBuilt": 1920,
    "bathrooms": 5,
    "propertyType": "Residential Area",
    "address": "104 Seagate Terrace, Rivers, California, 6858",
    "lastSaleDate": "2023-06-11",
    "latitude": -15.604287,
    "longitude": 101.12245,
    "rent": 642,
    "name": "Angeline"
  },
  {
    "id": "633965d5ba349741e4cbfc30",
    "city": "Belva",
    "state": "Colorado",
    "bedrooms": 4,
    "country": "Iceland",
    "squareFootage": 3863,
    "picture": "http://placehold.it/32x32",
    "yearBuilt": 1951,
    "bathrooms": 3,
    "propertyType": "Condominium",
    "address": "639 Stratford Road, Barclay, Connecticut, 168",
    "lastSaleDate": "2024-06-06",
    "latitude": 65.76404,
    "longitude": -63.134,
    "rent": 481,
    "name": "Mildred"
  },
  {
    "id": "633965d57f7b97faf5d1a14b",
    "city": "Lemoyne",
    "state": "Montana",
    "bedrooms": 3,
    "country": "Belgium",
    "squareFootage": 1929,
    "picture": "http://placehold.it/32x32",
    "yearBuilt": 1982,
    "bathrooms": 6,
    "propertyType": "Personal Property",
    "address": "505 Bokee Court, Healy, Maine, 7373",
    "lastSaleDate": "2023-04-13",
    "latitude": -37.628673,
    "longitude": 85.953503,
    "rent": 533,
    "name": "Ratliff"
  },
  {
    "id": "633965d5f1644563e43510ca",
    "city": "Harviell",
    "state": "Kansas",
    "bedrooms": 7,
    "country": "Belize",
    "squareFootage": 1755,
    "picture": "http://placehold.it/32x32",
    "yearBuilt": 2017,
    "bathrooms": 4,
    "propertyType": "Apartment",
    "address": "752 Randolph Street, Hardyville, Michigan, 6943",
    "lastSaleDate": "2022-11-12",
    "latitude": -79.498516,
    "longitude": -64.901099,
    "rent": 955,
    "name": "Leonor"
  },
  {
    "id": "633965d57756476eed798ddb",
    "city": "Rodanthe",
    "state": "North Dakota",
    "bedrooms": 7,
    "country": "Norway",
    "squareFootage": 3943,
    "picture": "http://placehold.it/32x32",
    "yearBuilt": 1944,
    "bathrooms": 2,
    "propertyType": "Personal Property",
    "address": "189 Emmons Avenue, Wilmington, Missouri, 7871",
    "lastSaleDate": "2024-02-23",
    "latitude": 72.883466,
    "longitude": 152.7202,
    "rent": 575,
    "name": "Vilma"
  },
  {
    "id": "633965d593119968ffda1001",
    "city": "Blodgett",
    "state": "Maryland",
    "bedrooms": 9,
    "country": "Palau",
    "squareFootage": 3967,
    "picture": "http://placehold.it/32x32",
    "yearBuilt": 1917,
    "bathrooms": 3,
    "propertyType": "Residential Area",
    "address": "333 Gerry Street, Westphalia, North Carolina, 9533",
    "lastSaleDate": "2022-12-16",
    "latitude": -2.485795,
    "longitude": 43.356083,
    "rent": 703,
    "name": "Chase"
  },
  {
    "id": "633965d50462d6edb0230df5",
    "city": "Stollings",
    "state": "Arkansas",
    "bedrooms": 8,
    "country": "Dominica",
    "squareFootage": 2787,
    "picture": "http://placehold.it/32x32",
    "yearBuilt": 1985,
    "bathrooms": 3,
    "propertyType": "Condominium",
    "address": "706 Delmonico Place, Celeryville, Marshall Islands, 9786",
    "lastSaleDate": "2023-09-10",
    "latitude": 44.507808,
    "longitude": 33.037101,
    "rent": 1165,
    "name": "Wynn"
  },
  {
    "id": "633965d57e9fcdccb19b95e4",
    "city": "Darrtown",
    "state": "Massachusetts",
    "bedrooms": 6,
    "country": "Czech Republic",
    "squareFootage": 1856,
    "picture": "http://placehold.it/32x32",
    "yearBuilt": 1967,
    "bathrooms": 5,
    "propertyType": "Condominium",
    "address": "798 Grattan Street, Outlook, West Virginia, 7763",
    "lastSaleDate": "2023-12-20",
    "latitude": 64.288443,
    "longitude": -60.263229,
    "rent": 279,
    "name": "Sweeney"
  },
  {
    "id": "633965d55190b066ed9c4e0f",
    "city": "Gibbsville",
    "state": "Nebraska",
    "bedrooms": 4,
    "country": "Faroe Islands",
    "squareFootage": 1000,
    "picture": "http://placehold.it/32x32",
    "yearBuilt": 1918,
    "bathrooms": 2,
    "propertyType": "Condominium",
    "address": "169 Bills Place, Summerset, New Mexico, 6997",
    "lastSaleDate": "2023-04-21",
    "latitude": -51.546163,
    "longitude": 151.453953,
    "rent": 553,
    "name": "Mcdowell"
  },
  {
    "id": "633965d562a7a3fb1d90c71b",
    "city": "Hondah",
    "state": "New Jersey",
    "bedrooms": 8,
    "country": "Morocco",
    "squareFootage": 2836,
    "picture": "http://placehold.it/32x32",
    "yearBuilt": 1979,
    "bathrooms": 6,
    "propertyType": "Multifamily Residential",
    "address": "837 Conselyea Street, Dunbar, Idaho, 3630",
    "lastSaleDate": "2023-09-12",
    "latitude": -44.686946,
    "longitude": 45.935792,
    "rent": 430,
    "name": "Mcintosh"
  },
  {
    "id": "633965d502499d7344bc2d3c",
    "city": "Bluetown",
    "state": "Louisiana",
    "bedrooms": 10,
    "country": "Norfolk Island",
    "squareFootage": 1999,
    "picture": "http://placehold.it/32x32",
    "yearBuilt": 1960,
    "bathrooms": 4,
    "propertyType": "Personal Property",
    "address": "352 Rodney Street, Abrams, Rhode Island, 2168",
    "lastSaleDate": "2022-12-17",
    "latitude": 72.422471,
    "longitude": -160.127451,
    "rent": 451,
    "name": "Helena"
  },
  {
    "id": "633965d5be9ca5f952b8d051",
    "city": "Rivereno",
    "state": "Texas",
    "bedrooms": 10,
    "country": "Anguilla",
    "squareFootage": 3415,
    "picture": "http://placehold.it/32x32",
    "yearBuilt": 1930,
    "bathrooms": 4,
    "propertyType": "Single Family Home",
    "address": "556 Quentin Street, Ladera, Alabama, 177",
    "lastSaleDate": "2023-01-22",
    "latitude": -85.99561,
    "longitude": -105.38472,
    "rent": 1179,
    "name": "Sofia"
  },
  {
    "id": "633965d5986dc9378d400fa3",
    "city": "Windsor",
    "state": "Federated States Of Micronesia",
    "bedrooms": 2,
    "country": "Northern Mariana Islands",
    "squareFootage": 1275,
    "picture": "http://placehold.it/32x32",
    "yearBuilt": 1951,
    "bathrooms": 2,
    "propertyType": "Commercial Real Estate",
    "address": "422 Moultrie Street, Brantleyville, Oklahoma, 4767",
    "lastSaleDate": "2024-10-31",
    "latitude": 11.274419,
    "longitude": -136.851653,
    "rent": 903,
    "name": "Howard"
  },
  {
    "id": "633965d5b370a0ce7ed967f1",
    "city": "Broadlands",
    "state": "Northern Mariana Islands",
    "bedrooms": 2,
    "country": "Canada",
    "squareFootage": 1304,
    "picture": "http://placehold.it/32x32",
    "yearBuilt": 1956,
    "bathrooms": 5,
    "propertyType": "Single Family Home",
    "address": "896 Vermont Court, Westerville, Washington, 8854",
    "lastSaleDate": "2024-07-31",
    "latitude": 72.415027,
    "longitude": 26.824263,
    "rent": 618,
    "name": "Lola"
  },
  {
    "id": "633965d579d2b6711472a04f",
    "city": "Newcastle",
    "state": "Delaware",
    "bedrooms": 4,
    "country": "Samoa",
    "squareFootage": 2021,
    "picture": "http://placehold.it/32x32",
    "yearBuilt": 1918,
    "bathrooms": 2,
    "propertyType": "Commercial Real Estate",
    "address": "995 Love Lane, Bowmansville, Pennsylvania, 6096",
    "lastSaleDate": "2023-06-17",
    "latitude": -12.45638,
    "longitude": 77.479986,
    "rent": 404,
    "name": "Cherie"
  },
  {
    "id": "633965d5c4a552aa93820510",
    "city": "Gloucester",
    "state": "Kentucky",
    "bedrooms": 5,
    "country": "Bahrain",
    "squareFootage": 1582,
    "picture": "http://placehold.it/32x32",
    "yearBuilt": 1929,
    "bathrooms": 2,
    "propertyType": "Apartment",
    "address": "384 Bancroft Place, Harleigh, District Of Columbia, 2617",
    "lastSaleDate": "2023-10-25",
    "latitude": 52.558164,
    "longitude": 154.792272,
    "rent": 647,
    "name": "Holder"
  },
  {
    "id": "633965d554d5270988817b2f",
    "city": "Summertown",
    "state": "Mississippi",
    "bedrooms": 3,
    "country": "Jordan",
    "squareFootage": 3899,
    "picture": "http://placehold.it/32x32",
    "yearBuilt": 2018,
    "bathrooms": 3,
    "propertyType": "Personal Property",
    "address": "116 Independence Avenue, Goodville, Guam, 5087",
    "lastSaleDate": "2024-01-01",
    "latitude": -81.250228,
    "longitude": 120.986567,
    "rent": 292,
    "name": "Ann"
  },
  {
    "id": "633965d5fc6d29f53f90d1c7",
    "city": "Bonanza",
    "state": "Palau",
    "bedrooms": 6,
    "country": "Argentina",
    "squareFootage": 1305,
    "picture": "http://placehold.it/32x32",
    "yearBuilt": 1956,
    "bathrooms": 5,
    "propertyType": "Apartment",
    "address": "962 Abbey Court, Dahlen, Oregon, 1985",
    "lastSaleDate": "2024-09-29",
    "latitude": 19.065426,
    "longitude": -2.243141,
    "rent": 582,
    "name": "Fields"
  },
  {
    "id": "633965d5cd415c2c57b53fc5",
    "city": "Islandia",
    "state": "Iowa",
    "bedrooms": 9,
    "country": "Benin",
    "squareFootage": 3482,
    "picture": "http://placehold.it/32x32",
    "yearBuilt": 1904,
    "bathrooms": 4,
    "propertyType": "Single Family Home",
    "address": "135 Surf Avenue, Turpin, Hawaii, 9649",
    "lastSaleDate": "2024-09-23",
    "latitude": -21.919668,
    "longitude": 74.375819,
    "rent": 624,
    "name": "Verna"
  },
  {
    "id": "633965d5c103732cdd5e6a24",
    "city": "Cutter",
    "state": "Florida",
    "bedrooms": 6,
    "country": "United States",
    "squareFootage": 3084,
    "picture": "http://placehold.it/32x32",
    "yearBuilt": 2014,
    "bathrooms": 6,
    "propertyType": "Apartment",
    "address": "814 Boulevard Court, Edgewater, American Samoa, 8352",
    "lastSaleDate": "2024-09-18",
    "latitude": -38.776541,
    "longitude": 121.889864,
    "rent": 378,
    "name": "Mandy"
  },
  {
    "id": "633965d51cadb61f96ff9fb8",
    "city": "Richville",
    "state": "Nevada",
    "bedrooms": 5,
    "country": "Sao Tome and Principe",
    "squareFootage": 3197,
    "picture": "http://placehold.it/32x32",
    "yearBuilt": 1928,
    "bathrooms": 4,
    "propertyType": "Single Family Home",
    "address": "724 Cortelyou Road, Lodoga, Tennessee, 4452",
    "lastSaleDate": "2022-11-04",
    "latitude": -34.077805,
    "longitude": -95.594554,
    "rent": 1348,
    "name": "Pratt"
  },
  {
    "id": "633965d5e9e9a5afd423cd7e",
    "city": "Smeltertown",
    "state": "Indiana",
    "bedrooms": 3,
    "country": "Iran",
    "squareFootage": 3658,
    "picture": "http://placehold.it/32x32",
    "yearBuilt": 1935,
    "bathrooms": 4,
    "propertyType": "Apartment",
    "address": "639 Stoddard Place, Belmont, Illinois, 4985",
    "lastSaleDate": "2024-05-18",
    "latitude": 29.008357,
    "longitude": 158.139949,
    "rent": 1139,
    "name": "Janine"
  },
  {
    "id": "633965d5bcc0f21480422adf",
    "city": "Baden",
    "state": "Arizona",
    "bedrooms": 3,
    "country": "Peru",
    "squareFootage": 3342,
    "picture": "http://placehold.it/32x32",
    "yearBuilt": 1903,
    "bathrooms": 5,
    "propertyType": "Personal Property",
    "address": "625 Bedford Avenue, Elliston, Puerto Rico, 1545",
    "lastSaleDate": "2024-03-10",
    "latitude": -13.398795,
    "longitude": -147.535323,
    "rent": 637,
    "name": "Watkins"
  },
  {
    "id": "633965d51b49538283c23d1a",
    "city": "Vernon",
    "state": "Georgia",
    "bedrooms": 7,
    "country": "Colombia",
    "squareFootage": 3121,
    "picture": "http://placehold.it/32x32",
    "yearBuilt": 1974,
    "bathrooms": 5,
    "propertyType": "Apartment",
    "address": "169 Doscher Street, Robinette, New Hampshire, 945",
    "lastSaleDate": "2024-10-30",
    "latitude": -10.983528,
    "longitude": -77.142914,
    "rent": 31,
    "name": "Stacey"
  },
  {
    "id": "633965d50cfdd5ab549708e0",
    "city": "Chical",
    "state": "Utah",
    "bedrooms": 5,
    "country": "Mozambique",
    "squareFootage": 3808,
    "picture": "http://placehold.it/32x32",
    "yearBuilt": 1946,
    "bathrooms": 5,
    "propertyType": "Multifamily Residential",
    "address": "756 Oriental Boulevard, Bridgetown, Wyoming, 6181",
    "lastSaleDate": "2024-01-17",
    "latitude": -38.311295,
    "longitude": -48.085591,
    "rent": 851,
    "name": "Noble"
  },
  {
    "id": "633965d503e55c83eff02617",
    "city": "Maplewood",
    "state": "Virginia",
    "bedrooms": 10,
    "country": "Paraguay",
    "squareFootage": 3088,
    "picture": "http://placehold.it/32x32",
    "yearBuilt": 1921,
    "bathrooms": 3,
    "propertyType": "Personal Property",
    "address": "936 Rutland Road, Boling, Minnesota, 9807",
    "lastSaleDate": "2024-08-23",
    "latitude": 37.431033,
    "longitude": 67.110663,
    "rent": 1427,
    "name": "Albert"
  },
  {
    "id": "633965d56f2dfc608e3bb532",
    "city": "Hollymead",
    "state": "Vermont",
    "bedrooms": 5,
    "country": "East Timor",
    "squareFootage": 1586,
    "picture": "http://placehold.it/32x32",
    "yearBuilt": 2019,
    "bathrooms": 2,
    "propertyType": "Residential Area",
    "address": "920 Danforth Street, Rodman, Ohio, 301",
    "lastSaleDate": "2023-10-22",
    "latitude": -54.911444,
    "longitude": 82.902831,
    "rent": 490,
    "name": "Mullins"
  },
  {
    "id": "633965d557fd7b4f38119155",
    "city": "Harborton",
    "state": "Wisconsin",
    "bedrooms": 3,
    "country": "Tuvalu",
    "squareFootage": 3320,
    "picture": "http://placehold.it/32x32",
    "yearBuilt": 1933,
    "bathrooms": 2,
    "propertyType": "Single Family Home",
    "address": "656 Chase Court, Bartonsville, South Dakota, 4838",
    "lastSaleDate": "2024-12-08",
    "latitude": 20.585098,
    "longitude": -88.220124,
    "rent": 1075,
    "name": "Mccormick"
  },
  {
    "id": "633965d5f8c18dcab9892468",
    "city": "Williston",
    "state": "Alaska",
    "bedrooms": 5,
    "country": "Brunei Darussalam",
    "squareFootage": 3638,
    "picture": "http://placehold.it/32x32",
    "yearBuilt": 1925,
    "bathrooms": 6,
    "propertyType": "Personal Property",
    "address": "119 Erskine Loop, Heil, Virgin Islands, 2318",
    "lastSaleDate": "2023-05-26",
    "latitude": -23.53696,
    "longitude": -110.451388,
    "rent": 735,
    "name": "Benton"
  },
  {
    "id": "633965d54fba79599b9ec6b0",
    "city": "Winston",
    "state": "South Carolina",
    "bedrooms": 10,
    "country": "Chile",
    "squareFootage": 3985,
    "picture": "http://placehold.it/32x32",
    "yearBuilt": 1993,
    "bathrooms": 4,
    "propertyType": "Multifamily Residential",
    "address": "677 Fairview Place, Lacomb, California, 3538",
    "lastSaleDate": "2024-09-20",
    "latitude": -51.989611,
    "longitude": -106.519152,
    "rent": 156,
    "name": "Meyer"
  },
  {
    "id": "633965d56b87c55526ea8b38",
    "city": "Allentown",
    "state": "Colorado",
    "bedrooms": 9,
    "country": "Moldova",
    "squareFootage": 2606,
    "picture": "http://placehold.it/32x32",
    "yearBuilt": 1969,
    "bathrooms": 2,
    "propertyType": "Commercial Real Estate",
    "address": "589 Wolf Place, Valle, Connecticut, 3138",
    "lastSaleDate": "2023-02-24",
    "latitude": 57.808743,
    "longitude": 151.990188,
    "rent": 784,
    "name": "Owens"
  },
  {
    "id": "633965d5816776cc09bbab6b",
    "city": "Fontanelle",
    "state": "Montana",
    "bedrooms": 5,
    "country": "Virgin Islands (British)",
    "squareFootage": 3487,
    "picture": "http://placehold.it/32x32",
    "yearBuilt": 1980,
    "bathrooms": 4,
    "propertyType": "Multifamily Residential",
    "address": "834 Etna Street, Abiquiu, Maine, 7415",
    "lastSaleDate": "2024-08-12",
    "latitude": -81.301868,
    "longitude": 147.775264,
    "rent": 1468,
    "name": "Arline"
  },
  {
    "id": "633965d5e89abc49a5b0a7e2",
    "city": "Berwind",
    "state": "Kansas",
    "bedrooms": 6,
    "country": "Ecuador",
    "squareFootage": 3322,
    "picture": "http://placehold.it/32x32",
    "yearBuilt": 1904,
    "bathrooms": 6,
    "propertyType": "Single Family Home",
    "address": "246 Nova Court, Clinton, Michigan, 1850",
    "lastSaleDate": "2024-09-01",
    "latitude": 16.431456,
    "longitude": -86.849883,
    "rent": 177,
    "name": "Felicia"
  },
  {
    "id": "633965d50ca328f308763212",
    "city": "Cannondale",
    "state": "North Dakota",
    "bedrooms": 8,
    "country": "Denmark",
    "squareFootage": 1695,
    "picture": "http://placehold.it/32x32",
    "yearBuilt": 1956,
    "bathrooms": 6,
    "propertyType": "Apartment",
    "address": "842 Arlington Avenue, Selma, Missouri, 4184",
    "lastSaleDate": "2023-09-19",
    "latitude": -22.991588,
    "longitude": -119.724495,
    "rent": 1161,
    "name": "Poole"
  },
  {
    "id": "633965d5e8489039d0db7834",
    "city": "Bourg",
    "state": "Maryland",
    "bedrooms": 9,
    "country": "Maldives",
    "squareFootage": 3078,
    "picture": "http://placehold.it/32x32",
    "yearBuilt": 1991,
    "bathrooms": 6,
    "propertyType": "Single Family Home",
    "address": "871 Gallatin Place, Urbana, North Carolina, 1586",
    "lastSaleDate": "2024-11-28",
    "latitude": -36.255879,
    "longitude": -14.95562,
    "rent": 1041,
    "name": "Letha"
  },
  {
    "id": "633965d5c8f3b9570c306e2a",
    "city": "Orviston",
    "state": "Arkansas",
    "bedrooms": 4,
    "country": "Macau",
    "squareFootage": 2523,
    "picture": "http://placehold.it/32x32",
    "yearBuilt": 1971,
    "bathrooms": 2,
    "propertyType": "Multifamily Residential",
    "address": "477 Boerum Place, Williams, Marshall Islands, 6145",
    "lastSaleDate": "2024-09-14",
    "latitude": 57.509685,
    "longitude": 47.155493,
    "rent": 1432,
    "name": "Forbes"
  }
]